Code,CodigoRegion,NombreRegion,CodigoComuna,NombreComuna,LATITUD,LONGITUD,NombreOficial
24-105,10.0,Región De Los Lagos,10101.0,Puerto Montt,-41.44855,-72.957342,Hospital de Puerto Montt
14-801,13.0,Región Metropolitana de Santiago,13201.0,Puente Alto,-33.607158,-70.578452,SAPU Dr. Alejandro del Río
03-100,2.0,Región De Antofagasta,2101.0,Antofagasta,-23.616852,-70.385924,Hospital Dr. Leonardo Guzmán (Antofagasta)
14-805,13.0,Región Metropolitana de Santiago,13110.0,La Florida,-33.560616,-70.605789,SAPU Los Quillayes
14-101,13.0,Región Metropolitana de Santiago,13201.0,Puente Alto,-33.577251,-70.581781,"Complejo Hospitalario Dr. Sótero del Río (Santiago, Puente Alto)"
09-100,13.0,Región Metropolitana de Santiago,13108.0,Independencia,-33.416586,-70.653318,"Complejo Hospitalario San José (Santiago, Independencia)"
13-814,13.0,Región Metropolitana de Santiago,13105.0,El Bosque,-33.550691,-70.671985,SAPU Cóndores de Chile
14-150,13.0,Región Metropolitana de Santiago,13110.0,La Florida,-33.514203,-70.598105,Centro de Referencia de Salud San Rafael
13-100,13.0,Región Metropolitana de Santiago,13130.0,San Miguel,-33.485147,-70.644439,"Hospital Barros Luco Trudeau (Santiago, San Miguel)"
13-180,13.0,Región Metropolitana de Santiago,13401.0,San Bernardo,-33.58435,-70.676793,"Hospital El Pino (Santiago, San Bernardo)"
12-818,13.0,Región Metropolitana de Santiago,13122.0,Peñalolén,-33.473978,-70.574093,SAPU Lo Hermida
12-814,13.0,Región Metropolitana de Santiago,13122.0,Peñalolén,-33.468245,-70.555657,SAPU La Faena
11-805,13.0,Región Metropolitana de Santiago,13102.0,Cerrillos,-33.493334,-70.719326,SAPU Dr. Norman Voulliéme
12-101,13.0,Región Metropolitana de Santiago,13122.0,Peñalolén,-33.501328,-70.579408,"Hospital Dr. Luis Tisné B. (Santiago, Peñalolén)"
10-860,13.0,Región Metropolitana de Santiago,13128.0,Renca,-33.4035,-70.702362,SAR Renca
11-351,13.0,Región Metropolitana de Santiago,13119.0,Maipú,-33.508774,-70.771857,Centro de Referencia de Salud de Maipú
10-850,13.0,Metropolitana de Santiago,13120.0,Pudahuel,-33.4372,-70.7406,SAPU-Pudahuel Estrella
14-103,13.0,Región Metropolitana de Santiago,13131.0,San Ramón,-33.5525,-70.635024,Hospital Padre Alberto Hurtado (San Ramón)
10-100,13.0,Región Metropolitana de Santiago,13101.0,Santiago,-33.442394,-70.679188,"Hospital San Juan de Dios (Santiago, Santiago)"
09-101,13.0,Región Metropolitana de Santiago,13108.0,Independencia,-33.415335,-70.655086,"Hospital Clínico de Niños Dr. Roberto del Río (Santiago, Independencia)"
13-812,13.0,Región Metropolitana de Santiago,13105.0,El Bosque,-33.55933,-70.669491,SAPU Dr. Carlos Lorca
13-130,13.0,Región Metropolitana de Santiago,13130.0,San Miguel,-33.484761,-70.648129,"Hospital Dr. Exequiel González Cortés (Santiago, San Miguel)"
11-195,13.0,Región Metropolitana de Santiago,13101.0,Santiago,-33.444004,-70.637955,Hospital de Urgencia Asistencia Pública Dr. Alejandro del Río
10-120,13.0,Región Metropolitana de Santiago,13103.0,Cerro Navia,-33.423625,-70.741664,Hospital  Félix Bulnes Cerda
09-805,13.0,Región Metropolitana de Santiago,13107.0,Huechuraba,-33.373295,-70.636987,SAR La Pincoya
12-820,13.0,Región Metropolitana de Santiago,13120.0,Ñuñoa,-33.466359,-70.588086,SAPU Centro de Urgencia Ñuñoa
21-109,9.0,Región De La Araucanía,9101.0,Temuco,-38.736532,-72.599238,Hospital Dr. Hernán Henríquez Aravena (Temuco)
18-100,8.0,Región Del Bíobío,8101.0,Concepción,-36.82511,-73.037951,Hospital Clínico Regional Dr. Guillermo Grant Benavente (Concepción)
12-102,13.0,Región Metropolitana de Santiago,13123.0,Providencia,-33.430592,-70.615846,Hospital de Niños Dr. Luis Calvo Mackenna
11-806,13.0,Región Metropolitana de Santiago,13106.0,Estación Central,-33.473631,-70.706178,SAPU San José de Chuchunco
11-100,13.0,Región Metropolitana de Santiago,13101.0,Santiago,-33.460498,-70.64232,Hospital Clínico San Borja Arriarán
07-100,5.0,Región De Valparaíso,5109.0,Viña del Mar,-33.0294,-71.541725,Hospital Dr. Gustavo Fricke (Viña del Mar)
12-100,13.0,Región Metropolitana de Santiago,13123.0,Providencia,-33.43664,-70.624493,Hospital Del Salvador de Santiago
09-802,13.0,Región Metropolitana de Santiago,13104.0,Conchalí,-33.38897,-70.671168,SAPU Lucas Sierra
20-105,8.0,Región Del Bíobío,8304.0,Laja,-37.26429,-72.709237,Hospital Comunitario de Laja
19-102,8.0,Región Del Bíobío,8107.0,Penco,-36.719574,-72.975452,Hospital Penco Lirquén
17-801,16.0,Región De Ñuble,16101.0,Chillán ,-36.609007,-72.089845,SAR Violeta Parra
17-304,16.0,Región De Ñuble,16101.0,Chillán ,-36.618497,-72.11814,Centro de Salud Familiar Isabel Riquelme
15-801,6.0,Región Del Libertador Gral. B. O'Higgins,6101.0,Rancagua,-34.178681,-70.739747,SAPU Eduardo de Geyter
15-310,6.0,Región Del Libertador Gral. B. O'Higgins,6116.0,Requínoa,-34.287958,-70.817122,Centro de Salud Familiar Requínoa
15-104,6.0,Región Del Libertador Gral. B. O'Higgins,6115.0,Rengo,-34.411325,-70.853259,Hospital Dr. Ricardo Valenzuela Sáez (Rengo)
14-825,13.0,Región Metropolitana de Santiago,13111.0,La Granja,-33.55162,-70.629382,SAPU Granja Sur
14-816,13.0,Región Metropolitana de Santiago,13110.0,La Florida,-33.560171,-70.578325,SAPU Dr. Fernando Maffioletti
14-809,13.0,Región Metropolitana de Santiago,13112.0,La Pintana,-33.576474,-70.650211,SAPU Pablo de Rokha
13-823,13.0,Región Metropolitana de Santiago,13105.0,El Bosque,-33.572174,-70.667283,SAR Haydee López
14-826,13.0,Región Metropolitana de Santiago,13201.0,Puente Alto,-33.626314,-70.625363,SAPU Karol Wojtyla
14-804,13.0,Región Metropolitana de Santiago,13110.0,La Florida,-33.531441,-70.604288,SAPU Villa O'Higgins
10-110,13.0,Región Metropolitana de Santiago,13101.0,Santiago,-33.434891,-70.658236,Instituto Traumatológico Dr. Teodoro Gebauer
14-811,13.0,Región Metropolitana de Santiago,13112.0,La Pintana,-33.588831,-70.618785,SAPU Santiago de Nueva Extremadura
10-375,13.0,Región Metropolitana de Santiago,13603.0,Isla de Maipo,-33.749042,-70.903306,Centro de Salud Familiar Isla de Maipo
14-812,13.0,Región Metropolitana de Santiago,13201.0,Puente Alto,-33.623509,-70.588615,SAPU San Gerónimo
14-824,13.0,Región Metropolitana de Santiago,13110.0,La Florida,-33.543587,-70.592865,SAPU Santa Amalia
14-821,13.0,Región Metropolitana de Santiago,13201.0,Puente Alto,-33.627857,-70.616197,SAPU Cardenal Silva Henríquez de Puente Alto
08-100,5.0,Región De Valparaíso,5701.0,San Felipe,-32.74977,-70.708992,Hospital San Camilo de San Felipe
14-802,13.0,Región Metropolitana de Santiago,13110.0,La Florida,-33.512075,-70.578137,SAPU Los Castaños
07-101,5.0,Región De Valparaíso,5501.0,Quillota,-32.87993,-71.257745,Hospital Biprovincial Quillota Petorca
13-809,13.0,Región Metropolitana de Santiago,13116.0,Lo Espejo,-33.522311,-70.697161,SAR Julio Acuña Pinzón
14-102,13.0,Región Metropolitana de Santiago,13203.0,San José de Maipo,-33.641256,-70.352299,Hospital San José de Maipo
13-807,13.0,Región Metropolitana de Santiago,13111.0,La Granja,-33.519708,-70.624091,SAPU Padre Esteban Gumucio
13-822,13.0,Región Metropolitana de Santiago,13129.0,San Joaquín,-33.506319,-70.62454,SAPU Santa Teresa de Los Andes
06-103,5.0,Región De Valparaíso,5601.0,San Antonio,-33.588809,-71.608623,Hospital Claudio Vicuña ( San Antonio)
13-813,13.0,Región Metropolitana de Santiago,13401.0,San Bernardo,-33.597298,-70.715066,SAPU Raúl Cuevas (Ex San Bernardo)
07-102,5.0,Región De Valparaíso,5801.0,Quilpué,-33.051961,-71.433933,Hospital de Quilpué
13-803,13.0,Región Metropolitana de Santiago,13121.0,Pedro Aguirre Cerda,-33.503567,-70.675846,SAR Dr. Amador Neghme R.
13-150,13.0,Región Metropolitana de Santiago,13402.0,Buin,-33.734263,-70.739547,Hospital San Luis (Buin)
05-819,4.0,Región De Coquimbo,4101.0,La Serena,-29.881209,-71.224522,SAR Raúl Silva Henríquez
13-190,13.0,Región Metropolitana de Santiago,13401.0,San Bernardo,-33.592835,-70.697393,Hospital Parroquial de San Bernardo (D)
05-809,4.0,Región De Coquimbo,4202.0,Canela,-31.400039,-71.458997,SAPU Canela
05-804,4.0,Región De Coquimbo,4102.0,Coquimbo,-29.950999,-71.34276,SAPU Santa Cecilia
12-806,13.0,Región Metropolitana de Santiago,13114.0,Las Condes,-33.417162,-70.532902,SAPU Aníbal Ariztía
12-810,13.0,Región Metropolitana de Santiago,13120.0,Ñuñoa,-33.469329,-70.602479,SAPU Rosita Renard
12-107,5.0,Región De Valparaíso,5201.0,Isla de Pascua,-27.150245,-109.421012,Hospital Hanga Roa (Isla De Pascua)
15-113,6.0,Región Del Libertador Gral. B. O'Higgins,6304.0,Lolol,-34.728217,-71.646665,Hospital de Lolol
15-110,6.0,Región Del Libertador Gral. B. O'Higgins,6310.0,Santa Cruz,-34.634422,-71.35723,Hospital de Santa Cruz
15-103,6.0,Región Del Libertador Gral. B. O'Higgins,6112.0,Peumo,-34.389587,-71.173054,Hospital Del Salvador de Peumo
11-800,13.0,Región Metropolitana de Santiago,13101.0,Santiago,-33.455638,-70.652567,SAPU Consultorio Nº1
14-822,13.0,Región Metropolitana de Santiago,13201.0,Puente Alto,-33.584146,-70.556186,SAR Padre Manuel Villaseca
10-851,13.0,Metropolitana de Santiago,13120.0,Pudahuel,-33.442413,-70.764867,SAPU-Pudahuel Poniente
14-819,13.0,Región Metropolitana de Santiago,13112.0,La Pintana,-33.563873,-70.647535,SAPU El Roble
10-825,13.0,Metropolitana de Santiago,13126.0,Quinta Normal,-33.430472,-70.714164,SAPU Garín
14-814,13.0,Región Metropolitana de Santiago,13131.0,San Ramón,-33.537991,-70.640711,SAPU San Ramón
10-379,13.0,Región Metropolitana de Santiago,13501.0,Melipilla,-33.700239,-71.218134,Centro de Salud Familiar Dr. Francisco Boris Soler
10-500,13.0,Metropolitana de Santiago,13502.0,Alhué,-34.032484,-71.100076,Posta de Salud Rural Villa Alhué
14-808,13.0,Región Metropolitana de Santiago,13112.0,La Pintana,-33.57965,-70.63945,SAPU San Rafael
10-150,13.0,Región Metropolitana de Santiago,13501.0,Melipilla,-33.69526,-71.214668,Hospital San José (Melipilla)
15-309,6.0,Región Del Libertador Gral. B. O'Higgins,6104.0,Coltauco,-34.287581,-71.08382,Centro de Salud Familiar Francisco Labrin de Coltauco
10-385,13.0,Región Metropolitana de Santiago,13504.0,Maria Pinto,-33.51714,-71.125008,Centro de Salud Familiar Adriana Madrid De Costabal
10-130,13.0,Región Metropolitana de Santiago,13601.0,Talagante,-33.66801,-70.920339,Hospital Adalberto Steeger (Talagante)
10-364,13.0,Región Metropolitana de Santiago,13128.0,Renca,-33.39126,-70.698932,Centro de Salud Familiar Huamachuco
10-160,13.0,Región Metropolitana de Santiago,13503.0,Curacaví,-33.4095,-71.145664,Hospital de Curacaví
13-828,13.0,Región Metropolitana de Santiago,13401.0,San Bernardo,-33.614112,-70.697762,SAPU Padre Joan Alsina
08-101,5.0,Región De Valparaíso,5301.0,Los Andes,-32.829664,-70.59643,Hospital San Juan de Dios (Los Andes)
05-803,4.0,Región De Coquimbo,4102.0,Coquimbo,-29.975579,-71.325241,SAPU San Juan
06-811,5.0,Región De Valparaíso,5101.0,Valparaíso,-33.042304,-71.645856,SAPU Quebrada Verde
05-314,4.0,Región De Coquimbo,4104.0,La Higuera,-29.508284,-71.199675,Centro de Salud Familiar La Higuera
12-813,13.0,Región Metropolitana de Santiago,13118.0,Macul,-33.476164,-70.592841,SAPU Santa Julia
05-104,4.0,Región De Coquimbo,4204.0,Salamanca,-31.776383,-70.962957,Hospital de Salamanca
12-807,13.0,Región Metropolitana de Santiago,13115.0,Lo Barnechea,-33.351764,-70.509847,SAPU Lo Barnechea
05-103,4.0,Región De Coquimbo,4201.0,Illapel,-31.63473,-71.173672,Hospital Dr. Humberto Elorza Cortés (Illapel)
11-809,13.0,Región Metropolitana de Santiago,13119.0,Maipú,-33.513934,-70.79687,SAPU Dra. Ana María Juricic
05-823,4.0,Región De Coquimbo,4102.0,Coquimbo,-29.970801,-71.336359,SAPU Dr. Sergio Aguilar
04-100,3.0,Región De Atacama,3101.0,Copiapó,-27.373352,-70.322127,Hospital San José del Carmen (Copiapó)
11-804,13.0,Región Metropolitana de Santiago,13119.0,Maipú,-33.504336,-70.758607,SAPU Maipú
05-805,4.0,Región De Coquimbo,4102.0,Coquimbo,-29.962371,-71.255994,SAR Tierras Blancas
05-801,4.0,Región De Coquimbo,4101.0,La Serena,-29.878321,-71.244959,SAPU Las Compañías
02-801,1.0,Región De Tarapacá,1101.0,Iquique,-20.208468,-70.150327,SAPU Cirujano Videla
05-313,4.0,Región De Coquimbo,4101.0,La Serena,-29.905735,-71.249671,Centro de Salud Familiar Dr. Emilio Schaffhauser
05-307,4.0,Región De Coquimbo,4303.0,Monte Patria,-30.696155,-70.958239,Centro de Salud Familiar Monte Patria
10-870,13.0,Metropolitana de Santiago,13602.0,El Monte,-33.682045,-70.985912,SAPU El Monte
02-307,1.0,Región De Tarapacá,1107.0,Alto Hospicio,-20.287114,-70.10386,Centro de Salud Familiar Dr. Héctor Reyno Gutiérrez
05-300,4.0,Región De Coquimbo,4101.0,La Serena,-29.932999,-71.258386,Centro de Salud Familiar Cardenal Caro
10-869,13.0,Metropolitana de Santiago,13605.0,Peñaflor,-33.610078,-70.87153,SAPU Dr. Fernando Monckeberg
02-100,1.0,Región De Tarapacá,1101.0,Iquique,-20.214354,-70.138931,Hospital Dr. Ernesto Torres Galdames (Iquique)
05-107,4.0,Región De Coquimbo,4106.0,Vicuña,-30.029346,-70.712492,Hospital San Juan de Dios (Vicuña)
10-867,13.0,Región Metropolitana de Santiago,13604.0,Padre Hurtado,-33.564063,-70.795882,SAPU Santa Rosa de Chena
01-802,15.0,Región De Arica Parinacota,15101.0,Arica,-18.437478,-70.290758,SAPU Marco Antonio Carvajal Moreno
05-105,4.0,Región De Coquimbo,4302.0,Combarbalá,-31.175494,-71.007933,Hospital San Juan de Dios (Combarbalá)
10-852,13.0,Metropolitana de Santiago,13124.0,Pudahuel,-33.458131,-70.76084,SAPU Dr. Gustavo Molina
01-100,15.0,Región De Arica Parinacota,15101.0,Arica,-18.482478,-70.312948,Hospital Regional Dr. Juan Noé Crevani (Arica)
03-807,2.0,Región De Antofagasta,2201.0,Calama,-22.47696,-68.9288,SAPU SUR
10-840,13.0,Metropolitana de Santiago,13117.0,Lo Prado,-33.451756,-70.715515,SAPU Dr. Raúl Yazigi
10-830,13.0,Metropolitana de Santiago,13103.0,Cerro Navia,-33.417692,-70.74122,SAPU Dr. Adalberto Steeger
03-101,2.0,Región De Antofagasta,2201.0,Calama,-22.445201,-68.918257,Hospital Dr. Carlos Cisternas (Calama)
16-832,7.0,Región Del Maule,7102.0,Constitución,-35.336625,-72.416548,SAR Constitución
10-815,13.0,Metropolitana de Santiago,13117.0,Lo Prado,-33.439204,-70.709532,SAPU Santa Anita
02-806,1.0,Región De Tarapacá,1101.0,Iquique,-20.250364,-70.128086,SAR Sur de Iquique
16-820,7.0,Región Del Maule,7403.0,Longaví,-35.965065,-71.685884,SAPU Amanda Benavente
02-803,1.0,Región De Tarapacá,1401.0,Pozo Almonte,-20.258372,-69.785076,SAR Pozo Almonte
16-110,7.0,Región Del Maule,7404.0,Parral,-36.141982,-71.814027,Hospital San José (Parral)
16-806,7.0,Región Del Maule,7101.0,Talca,-35.435409,-71.678244,SAR La Florida
10-316,13.0,Región Metropolitana de Santiago,13117.0,Lo Prado,-33.450001,-70.730087,Centro de Salud Familiar Pablo Neruda
16-805,7.0,Región Del Maule,7101.0,Talca,-35.412085,-71.654915,SAPU José Dionisio Astaburuaga
15-823,6.0,Región Del Libertador Gral. B. O'Higgins,6301.0,San Fernando,-34.596419,-70.970892,SAPU Oriente de San Fernando
16-801,7.0,Región Del Maule,7301.0,Curicó,-34.998104,-71.248924,SAR Aguas Negras
15-805,6.0,Región Del Libertador Gral. B. O'Higgins,6108.0,Machalí,-34.18017,-70.651414,SAPU Machalí
16-111,7.0,Región Del Maule,7201.0,Cauquenes,-35.963105,-72.32527,Hospital San Juan de Dios (Cauquenes)
15-802,6.0,Región Del Libertador Gral. B. O'Higgins,6101.0,Rancagua,-34.174229,-70.711797,SAPU Abel Zapata
16-108,7.0,Región Del Maule,7401.0,Linares,-35.844282,-71.590991,Hospital Presidente Carlos Ibáñez del Campo (Linares)
15-324,6.0,Región Del Libertador Gral. B. O'Higgins,6101.0,Rancagua,-34.149489,-70.709035,Centro de Salud Familiar N° 6 Ignacio Caroca
15-850,6.0,Región Del Libertador Gral. B. O'Higgins,6101.0,Rancagua,-34.16297,-70.723565,SAR Oriente
15-316,6.0,Región Del Libertador Gral. B. O'Higgins,6206.0,Paredones,-34.642803,-71.898699,Centro de Salud Familiar Paredones
15-800,6.0,Región Del Libertador Gral. B. O'Higgins,6101.0,Rancagua,-34.166829,-70.764251,SAR Enrique Dintrans
15-313,6.0,Región Del Libertador Gral. B. O'Higgins,6307.0,Peralillo,-34.477982,-71.477109,Centro de Salud Familiar Peralillo
15-318,6.0,Región Del Libertador Gral. B. O'Higgins,6308.0,Placilla,-34.639175,-71.117002,Consultorio  Placilla 
16-100,7.0,Región Del Maule,7301.0,Curicó,-34.978121,-71.213364,Hospital San Juan de Dios (Curicó)
15-306,6.0,Región Del Libertador Gral. B. O'Higgins,6110.0,Mostazal,-33.978317,-70.708128,Centro de Salud Familiar San Francisco Mostazal
16-105,7.0,Región Del Maule,7101.0,Talca,-35.426896,-71.646373,Hospital Dr. César Garavagno Burotto (Talca)
15-308,6.0,Región Del Libertador Gral. B. O'Higgins,6105.0,Doñihue,-34.223273,-70.961128,Centro de Salud Familiar Doñihue
15-111,6.0,Región Del Libertador Gral. B. O'Higgins,6204.0,Marchihue,-34.39882,-71.61712,Hospital de Marchigüe
15-112,6.0,Región Del Libertador Gral. B. O'Higgins,6201.0,Pichilemu,-34.386509,-72.013232,Hospital de Pichilemu
15-101,6.0,Región Del Libertador Gral. B. O'Higgins,6106.0,Graneros,-34.06706,-70.730862,Hospital Santa Filomena de Graneros
06-829,5.0,Región De Valparaíso,5601.0,San Antonio,-33.609329,-71.601307,SAR Nestor Fernández Thomas
17-802,16.0,Región De Ñuble,16101.0,Chillán ,-36.624489,-72.097152,SAPU San Ramón de Nonato
15-109,6.0,Región Del Libertador Gral. B. O'Higgins,6305.0,Nancagua,-34.649785,-71.204874,Hospital de Nancagua
16-107,7.0,Región Del Maule,7102.0,Constitución,-35.339432,-72.402702,Hospital de Constitución
18-106,8.0,Región Del Bíobío,8106.0,Lota,-37.09019,-73.155535,Hospital de Lota
15-108,6.0,Región Del Libertador Gral. B. O'Higgins,6303.0,Chimbarongo,-34.702511,-71.036639,Hospital Mercedes de Chimbarongo
15-102,6.0,Región Del Libertador Gral. B. O'Higgins,6103.0,Coinco,-34.268594,-70.953919,Hospital de Coínco
16-802,7.0,Región Del Maule,7301.0,Curicó,-34.977179,-71.264039,SAR Bombero Garrido
15-100,6.0,Región Del Libertador Gral. B. O'Higgins,6101.0,Rancagua,-34.164489,-70.741937,Hospital Dr. Franco Ravera Zunino
13-820,13.0,Región Metropolitana de Santiago,13116.0,Lo Espejo,-33.507337,-70.694295,SAPU Dra. Mariela Salgado
16-807,7.0,Región Del Maule,7101.0,Talca,-35.447479,-71.654579,SAPU Julio Contardo Urzúa
14-820,13.0,Región Metropolitana de Santiago,13201.0,Puente Alto,-33.584117,-70.604067,SAPU Bernardo Leighton
13-818,13.0,Región Metropolitana de Santiago,13404.0,Paine,-33.813271,-70.744895,SAPU Paine
05-802,4.0,Región De Coquimbo,4101.0,La Serena,-29.916343,-71.218773,SAPU Pedro Aguirre Cerda
20-104,8.0,Región Del Bíobío,8313.0,Yumbel,-37.096364,-72.557662,Hospital Comunitario de Yumbel
05-310,4.0,Región De Coquimbo,4305.0,Río Hurtado,-30.395216,-70.871512,Centro de Salud Familiar Pichasca
20-107,8.0,Región Del Bíobío,8312.0,Tucapel,-37.240323,-71.942299,Hospital Comunitario Dr. Roberto Muñoz Urrutia de Huépil
18-812,8.0,Región Del Bíobío,8102.0,Coronel,-36.989899,-73.16022,SAPU Lagunillas
05-108,4.0,Región De Coquimbo,4203.0,Los Vilos,-31.915244,-71.512688,Hospital San Pedro (Los Vilos)
19-100,8.0,Región Del Bíobío,8110.0,Talcahuano,-36.740101,-73.108694,Hospital Las Higueras (Talcahuano)
05-101,4.0,Región De Coquimbo,4102.0,Coquimbo,-29.968488,-71.337017,Hospital San Pablo (Coquimbo)
20-805,8.0,Región Del Bíobío,8303.0,Cabrero,-37.037929,-72.398901,SAR Cabrero
04-821,3.0,Atacama,3102.0,Caldera,-27.0675,-70.8167,SAPU Rosario Corvalán
21-806,9.0,Región De La Araucanía,9101.0,Temuco,-38.734619,-72.572467,SAPU Santa Rosa
19-808,8.0,Región Del Bíobío,8110.0,Talcahuano,-36.714541,-73.13487,SAPU los Cerros
04-801,3.0,Atacama,3101.0,Copiapó,-27.3668,-70.3322,SAPU Dr. Bernardo Mellibovsky
22-313,14.0,Región De Los Ríos,14101.0,Valdivia,-39.873203,-73.395252,Centro de Salud Familiar Niebla
04-317,3.0,Región De Atacama,3301.0,Vallenar,-28.59047,-70.758299,Centro de Salud Familiar Joan Crawford Astudillo
24-805,10.0,Región De Los Lagos,10101.0,Puerto Montt,-41.473429,-72.954365,SAPU Angelmó
12-816,13.0,Región Metropolitana de Santiago,13122.0,Peñalolén,-33.476945,-70.543306,SAR Carol Urzúa Ibáñez
03-806,2.0,Región De Antofagasta,2201.0,Calama,-22.442565,-68.927351,SAPU Norponiente
26-800,12.0,Región De Magallanes y de la Antártica Chilena,12101.0,Punta Arenas,-53.141867,-70.912506,SAPU Dr. Mateo Bencur
12-815,13.0,Región Metropolitana de Santiago,13122.0,Peñalolén,-33.503774,-70.574054,SAPU San Luis
20-102,8.0,Región Del Bíobío,8305.0,Mulchén,-37.720357,-72.240649,Hospital de Mulchén
26-302,12.0,Región De Magallanes y de la Antártica Chilena,12101.0,Punta Arenas,-53.165219,-70.931067,Centro de Salud Familiar 18 Septiembre
03-102,2.0,Región De Antofagasta,2301.0,Tocopilla,-22.088382,-70.193236,Hospital Dr. Marcos Macuada (Tocopilla)
26-801,12.0,Región De Magallanes y de la Antártica Chilena,12101.0,Punta Arenas,-53.174898,-70.938015,SAR Dr. Juan Damianovic
21-121,9.0,Región De La Araucanía,9120.0,Villarrica,-39.2777,-72.226793,Hospital de Villarrica
28-111,8.0,Región Del Bíobío,8203.0,Cañete,-37.782106,-73.385438,Hospital Intercultural Kallvu Llanka (Cañete)
21-803,9.0,Región De La Araucanía,9101.0,Temuco,-38.735316,-72.581809,SAR Miraflores
16-829,7.0,Región Del Maule,7201.0,Cauquenes,-35.964271,-72.317408,SAR Dr. Juan Saavedra Macaya
28-324,8.0,Región Del Bíobío,8207.0,Tirúa,-38.340707,-73.493973,Centro de Salud Familiar Isabel Jiménez
18-807,8.0,Región Del Bíobío,8103.0,Chiguayante,-36.925655,-73.02921,SAPU Dental Chiguayante
21-808,9.0,Región De La Araucanía,9112.0,Padre Las Casas,-38.761205,-72.593334,SAPU Padre Las Casas
28-414,8.0,Región Del Bíobío,8202.0,Arauco,-37.167861,-73.187097,Centro de Salud Familiar Laraquete
19-101,8.0,Región Del Bíobío,8111.0,Tome,-36.613323,-72.954554,Hospital de Tomé
16-813,7.0,Región Del Maule,7109.0,San Clemente,-35.53597,-71.491996,SAR Luis Tobar Rojas
19-801,8.0,Región Del Bíobío,8112.0,Hualpén,-36.782799,-73.103731,SAR Hualpencillo
29-106,9.0,Región De La Araucanía,9211.0,Victoria,-38.233942,-72.340159,Hospital San José de Victoria
24-806,10.0,Región De Los Lagos,10101.0,Puerto Montt,-41.461069,-72.929357,SAPU Antonio Varas
20-811,8.0,Región Del Bíobío,8301.0,Los Ángeles,-37.485509,-72.339515,SAPU Paillihue
33-160,10.0,Región De Los Lagos,10210.0,Quinchao,-42.469562,-73.494599,Hospital Comunitario de Achao
28-109,8.0,Región Del Bíobío,8205.0,Curanilahue,-37.473676,-73.348238,Hospital Provincial Dr. Rafael Avaría (Curanilahue)
22-801,14.0,Región De Los Ríos,14101.0,Valdivia,-39.814769,-73.224657,SAPU Las Ánimas
33-350,10.0,Región De Los Lagos,10205.0,Dalcahue,-42.379216,-73.652055,Centro de Salud Familiar Dalcahue
28-112,8.0,Región Del Bíobío,8204.0,Contulmo,-38.020181,-73.232263,Hospital de Contulmo
24-315,10.0,Región De Los Lagos,10101.0,Puerto Montt,-41.468367,-72.916568,Centro de Salud Familiar Carmela Carvajal
29-104,9.0,Región De La Araucanía,9210.0,Traiguén,-38.24285,-72.671645,Hospital Dr. Dino Stagno M.(Traiguén)
18-808,8.0,Región Del Bíobío,8108.0,San Pedro de la Paz,-36.835384,-73.120424,SAPU Dental San Pedro de La Paz
17-101,16.0,Región De Ñuble,16101.0,Chillán ,-36.608831,-72.092671,Hospital Clínico Herminda Martín (Chillán)
16-803,7.0,Región Del Maule,7301.0,Curicó,-34.976651,-71.237891,SAPU Curicó Centro
16-809,7.0,Región Del Maule,7401.0,Linares,-35.851282,-71.590054,SAR San Juan de Dios de Linares
24-810,10.0,Región De Los Lagos,10109.0,Puerto Varas,-41.329068,-72.969229,SAR Puerto Varas
29-803,9.0,Región De La Araucanía,9201.0,Angol,-37.808995,-72.692728,SAR Alemania
19-304,8.0,Región Del Bíobío,8107.0,Penco,-36.738448,-72.990389,Centro de Salud Familiar Penco
33-150,10.0,Región De Los Lagos,10201.0,Castro,-42.477043,-73.76933,Hospital de Castro
16-811,7.0,Región Del Maule,7404.0,Parral,-36.143449,-71.832433,SAR Parral
18-809,8.0,Región Del Bíobío,8101.0,Concepción,-36.809987,-73.073504,SAPU Lorenzo Arenas
33-340,10.0,Región De Los Lagos,10209.0,Quemchi,-42.145584,-73.479167,Centro de Salud Familiar Quemchi
17-811,16.0,Región De Ñuble,16301.0,San Carlos,-36.41841,-71.969248,SAPU José Durán Trujillo
16-823,7.0,Región Del Maule,7401.0,Linares,-35.834679,-71.596092,SAPU Oscar Bonilla
26-100,12.0,Región De Magallanes y de la Antártica Chilena,12101.0,Punta Arenas,-53.12215,-70.896232,Hospital Clínico de Magallanes Dr. Lautaro Navarro Avaria
16-840,7.0,Región Del Maule,7101.0,Talca,-35.404259,-71.647586,SAR Las Américas
28-328,8.0,Región Del Bíobío,8206.0,Los Álamos,-37.625632,-73.461624,Centro de Salud Familiar Los Álamos
17-102,16.0,Región De Ñuble,16301.0,San Carlos,-36.429931,-71.959831,Hospital de San Carlos
19-807,8.0,Región Del Bíobío,8110.0,Talcahuano,-36.743908,-73.088275,SAPU Alcalde Leocán Portus
20-101,8.0,Región Del Bíobío,8301.0,Los Ángeles,-37.47365,-72.346903,Complejo Asistencial Dr. Víctor Ríos Ruiz (Los Ángeles)
18-105,8.0,Región Del Bíobío,8102.0,Coronel,-37.028242,-73.135861,Hospital San José (Coronel)
20-103,8.0,Región Del Bíobío,8306.0,Nacimiento,-37.507514,-72.676335,Hospital Comunitario y Familiar de Nacimiento
20-106,8.0,Región Del Bíobío,8311.0,Santa Bárbara,-37.668147,-72.016676,Hospital Comunitario de Santa Bárbara
18-817,8.0,Región Del Bíobío,8101.0,Concepción,-36.792366,-73.044103,SAPU Santa Sabina
22-103,14.0,Región De Los Ríos,14103.0,Lanco,-39.452096,-72.768424,Hospital de Lanco
22-802,14.0,Región De Los Ríos,14101.0,Valdivia,-39.832647,-73.216021,SAPU Gil de Castro
22-105,14.0,Región De Los Ríos,14204.0,Río Bueno,-40.334842,-72.95047,Hospital de Río Bueno
22-104,14.0,Región De Los Ríos,14201.0,La Unión,-40.284563,-73.076009,Hospital Juan Morey (La Unión)
24-881,10.0,Región De Los Lagos,10101.0,Puerto Montt,-41.474835,-72.984859,SAPU Padre Hurtado
22-201,14.0,Región De Los Ríos,14108.0,Panguipulli,-39.640676,-72.342377,Hospital Padre Bernabé de Lucerna (Panguipulli) (D)
22-305,14.0,Región De Los Ríos,14202.0,Futrono,-40.125638,-72.382668,Centro de Salud Familiar Belarmina Paredes
28-110,8.0,Región Del Bíobío,8201.0,Lebu,-37.610344,-73.659732,Hospital de Lebu
25-100,11.0,Región De Aysén del General Carlos Ibañez del Campo,11101.0,Coyhaique,-45.568399,-72.073423,Hospital Regional (Coihaique)
22-812,14.0,Región De Los Ríos,14204.0,Río Bueno,-40.335314,-72.949943,SAPU Río Bueno
28-113,8.0,Región Del Bíobío,8202.0,Arauco,-37.250717,-73.317625,Hospital San Vicente de Arauco
28-327,8.0,Región Del Bíobío,8205.0,Curanilahue,-37.480875,-73.33389,Centro de Salud Familiar Eleuterio Ramírez
29-100,9.0,Región De La Araucanía,9201.0,Angol,-37.794444,-72.705669,Hospital Dr. Mauricio Heyermann (Angol)
33-165,10.0,Región De Los Lagos,10208.0,Quellón,-43.115089,-73.617061,Hospital de Quellón
15-107,6.0,Región Del Libertador Gral. B. O'Higgins,6301.0,San Fernando,-34.575908,-70.992563,Hospital San Juan de Dios de San Fernando
15-106,6.0,Región Del Libertador Gral. B. O'Higgins,6113.0,Pichidegua,-34.359248,-71.28325,Hospital de Pichidegua
15-105,6.0,Región Del Libertador Gral. B. O'Higgins,6117.0,San Vicente,-34.441101,-71.080619,Hospital San Vicente de Tagua -Tagua
17-824,16.0,Región De Ñuble,16101.0,Chillán ,-36.617897,-72.080762,SAPU Los Volcanes
17-828,16.0,Región De Ñuble,16103.0,Chillán Viejo,-36.628726,-72.12819,SAPU Dr. Federico Puga
18-305,8.0,Región Del Bíobío,8101.0,Concepción,-36.816766,-73.032162,Centro de Salud Familiar Víctor Manuel Fernández
18-814,8.0,Región Del Bíobío,8103.0,Chiguayante,-36.954675,-73.012869,SAPU Leonera
21-114,9.0,Región De La Araucanía,9111.0,Nueva Imperial,-38.740329,-72.958314,Hospital Intercultural de Nueva Imperial
22-101,14.0,Región De Los Ríos,14102.0,Corral,-39.862713,-73.43597,Hospital de Corral
22-106,14.0,Región De Los Ríos,14107.0,Paillaco,-40.071762,-72.866485,Hospital de Paillaco
22-200,14.0,Región De Los Ríos,14106.0,Mariquina,-39.541263,-72.965729,Hospital Santa Elisa de San José de la Mariquina
22-306,14.0,Región De Los Ríos,14203.0,Lago Ranco,-40.32184,-72.471543,Centro de Salud Familiar Juan Santa María Bonet
23-100,10.0,Región De Los Lagos,10301.0,Osorno,-40.5883,-73.127785,Hospital Base San José de Osorno
23-800,10.0,Región De Los Lagos,10301.0,Osorno,-40.572862,-73.15809,SAPU Dr. Pedro Jáuregui
23-801,10.0,Región De Los Lagos,10301.0,Osorno,-40.591723,-73.169948,SAPU Rahue Alto
33-345,10.0,Región De Los Lagos,10203.0,Chonchi,-42.62284,-73.777917,Centro de Salud Familiar Chonchi
10-878,13.0,Metropolitana de Santiago,13501.0,Melipilla,-33.681495,-71.225757,SAPU Dr. Edelberto Elgueta
13-802,13.0,Región Metropolitana de Santiago,13130.0,San Miguel,-33.504957,-70.642698,SAR San Miguel
13-808,13.0,Región Metropolitana de Santiago,13116.0,Lo Espejo,-33.514798,-70.676271,SAPU Clara Estrella
13-815,13.0,Región Metropolitana de Santiago,13401.0,San Bernardo,-33.589493,-70.682814,SAPU Confraternidad
14-806,13.0,Región Metropolitana de Santiago,13111.0,La Granja,-33.537049,-70.633284,SAPU La Granja
14-807,13.0,Región Metropolitana de Santiago,13131.0,San Ramón,-33.545766,-70.644722,SAR La Bandera
15-325,6.0,Región Del Libertador Gral. B. O'Higgins,6109.0,Malloa,-34.441445,-70.944302,Centro de Salud Familiar de Malloa
19-305,8.0,Región Del Bíobío,8111.0,Tome,-36.600375,-72.960809,Centro de Salud Familiar Dr. Alberto Reyes
20-815,8.0,Región Del Bíobío,8301.0,Los Ángeles,-37.46393,-72.361555,SAR Norte
22-102,14.0,Región De Los Ríos,14104.0,Los Lagos,-39.863059,-72.809994,Hospital de Los Lagos
22-304,14.0,Región De Los Ríos,14108.0,Panguipulli,-39.643498,-72.337145,Centro de Salud Familiar Panguipulli
10-855,13.0,Metropolitana de Santiago,13103.0,Cerro Navia,-33.433509,-70.731486,SAPU Dr. Arturo Albertz
08-810,5.0,Valparaíso,5701.0,San Felipe,-32.754,-70.72,SAPU Curimón
06-804,5.0,Región De Valparaíso,5101.0,Valparaíso,-33.112914,-71.566161,SAPU Placilla
06-800,5.0,Región De Valparaíso,5101.0,Valparaíso,-33.045552,-71.583315,SAPU Placeres
06-100,5.0,Región De Valparaíso,5101.0,Valparaíso,-33.050258,-71.611098,Hospital Carlos Van Buren (Valparaíso)
05-822,4.0,Región De Coquimbo,4301.0,Ovalle,-30.598059,-71.195619,SAR Marcos Macuada
05-817,4.0,Región De Coquimbo,4301.0,Ovalle,-30.590093,-71.192437,SAPU Jorge Jordán Domic
05-308,4.0,Región De Coquimbo,4304.0,Punitaqui,-30.833371,-71.255288,Centro de Salud Familiar Punitaqui
05-306,4.0,Región De Coquimbo,4105.0,Paiguano,-30.025243,-70.517648,Centro de Salud Familiar Paihuano
05-106,4.0,Región De Coquimbo,4103.0,Andacollo,-30.227567,-71.085488,Hospital Dr. José Arraño (Andacollo)
05-102,4.0,Región De Coquimbo,4301.0,Ovalle,-30.599614,-71.200031,Hospital Dr. Antonio Tirado Lanas de Ovalle
05-100,4.0,Región De Coquimbo,4101.0,La Serena,-29.908191,-71.249732,Hospital San Juan de Dios (La Serena)
04-103,3.0,Región De Atacama,3301.0,Vallenar,-28.574949,-70.782512,Hospital Provincial del Huasco Monseñor Fernando Ariztía Ruiz (Vallenar)
03-804,2.0,Región De Antofagasta,2101.0,Antofagasta,-23.581858,-70.381305,SAPU Juan Pablo II de Antofagasta
03-800,2.0,Región De Antofagasta,2101.0,Antofagasta,-23.597094,-70.380532,SAPU Norte de Antofagasta
22-100,14.0,Región De Los Ríos,14101.0,Valdivia,-39.831807,-73.240138,Hospital Base Valdivia
24-895,10.0,Región De Los Lagos,10101.0,Puerto Montt,-41.397673,-72.903457,SAR Alerce
18-813,8.0,Región Del Bíobío,8102.0,Coronel,-37.01224,-73.15018,SAPU Yobilo
17-803,16.0,Región De Ñuble,16101.0,Chillán ,-36.604239,-72.120387,SAPU Ultraestación
26-101,12.0,Región De Magallanes y de la Antártica Chilena,12401.0,Natales,-51.730327,-72.506046,Hospital Dr. Augusto Essmann Burgos ( Natales)
16-831,7.0,Región Del Maule,7101.0,Talca,-35.439942,-71.63321,SAPU Carlos Trupp
15-803,6.0,Región Del Libertador Gral. B. O'Higgins,6101.0,Rancagua,-34.154584,-70.737301,SAR María Latife
33-155,10.0,Región De Los Lagos,10202.0,Ancud,-41.86523,-73.823832,Hospital de Ancud
15-315,6.0,Región Del Libertador Gral. B. O'Higgins,6302.0,Chepica,-34.733507,-71.268165,Centro de Salud Familiar Chépica
14-817,13.0,Región Metropolitana de Santiago,13112.0,La Pintana,-33.556797,-70.616538,SAPU Santo Tomás
13-831,13.0,Región Metropolitana de Santiago,13121.0,Pedro Aguirre Cerda,-33.47999,-70.669113,SAPU Edgardo Enríquez Froedden
13-830,13.0,Región Metropolitana de Santiago,13401.0,San Bernardo,-33.598813,-70.680145,SAPU Raúl Brañes F.
13-829,13.0,Región Metropolitana de Santiago,13401.0,San Bernardo,-33.575737,-70.70347,SAR Eugenia Muñoz Dalmatín
13-826,13.0,Región Metropolitana de Santiago,13109.0,La Cisterna,-33.539064,-70.662494,SAPU Eduardo Frei Montalva
10-835,13.0,Metropolitana de Santiago,13103.0,Cerro Navia,-33.433509,-70.731486,SAPU Cerro Navia
10-354,13.0,Región Metropolitana de Santiago,13124.0,Pudahuel,-33.456935,-70.742752,Centro de Salud Familiar Violeta Parra
10-140,13.0,Región Metropolitana de Santiago,13605.0,Peñaflor,-33.61001,-70.904125,Hospital de Peñaflor
22-814,14.0,Región De Los Ríos,14101.0,Valdivia,-39.849958,-73.223185,SAPU Angachilla
33-170,10.0,Región De Los Lagos,10207.0,Queilén,-42.890237,-73.473141,Hospital Comunitario de Queilén
22-810,14.0,Región De Los Ríos,14201.0,La Unión,-40.306234,-73.082216,SAR La Unión
07-800,5.0,Región De Valparaíso,5109.0,Viña del Mar,-33.04773,-71.564586,SAPU Nueva Aurora
23-103,10.0,Región De Los Lagos,10302.0,Puerto Octay,-40.972564,-72.883184,Hospital de Puerto Octay
23-301,10.0,Región De Los Lagos,10301.0,Osorno,-40.572145,-73.124916,Centro de Salud Familiar Dr. Marcelo Lopetegui Adams
02-807,1.0,Región De Tarapacá,1107.0,Alto Hospicio,-20.246059,-70.096632,SAPU El Boro
02-805,1.0,Región De Tarapacá,1107.0,Alto Hospicio,-20.264904,-70.097621,SAPU Pedro Pulgar Melgarejo
02-800,1.0,Región De Tarapacá,1101.0,Iquique,-20.226257,-70.134701,SAPU Cirujano Aguirre
14-310,13.0,Región Metropolitana de Santiago,13202.0,Pirque,-33.635077,-70.572477,Centro de Salud Familiar Dr. José Manuel Balmaceda
14-828,13.0,Región Metropolitana de Santiago,13131.0,San Ramón,-33.551808,-70.640914,SAPU Poetisa Gabriela Mistral
13-832,13.0,Región Metropolitana de Santiago,13401.0,San Bernardo,-33.584763,-70.691983,SAPU Juan Pablo II
07-808,5.0,Región De Valparaíso,5801.0,Quilpué,-33.059169,-71.408372,SAR El Belloto Sur
06-303,5.0,Región De Valparaíso,5101.0,Valparaíso,-33.060844,-71.592492,Centro de Salud Familiar Reina Isabel II
15-114,6.0,Región Del Libertador Gral. B. O'Higgins,6203.0,Litueche,-34.115513,-71.729399,Hospital de Litueche
12-317,13.0,Región Metropolitana de Santiago,13113.0,La Reina,-33.442855,-70.54447,Centro de Salud Familiar Ossandon
14-831,13.0,Región Metropolitana de Santiago,13110.0,La Florida,-33.514807,-70.585529,SAPU La Florida
09-821,13.0,Región Metropolitana de Santiago,13108.0,Independencia,-33.41752,-70.668478,SAPU Juan Antonio Ríos
09-809,13.0,Región Metropolitana de Santiago,13104.0,Conchalí,-33.375965,-70.684441,SAR Conchalí
13-806,13.0,Región Metropolitana de Santiago,13121.0,Pedro Aguirre Cerda,-33.489687,-70.676158,SAPU La Feria
09-808,13.0,Región Metropolitana de Santiago,13104.0,Conchalí,-33.39451,-70.65802,SAPU Alberto Bachelet Martínez
09-804,13.0,Región Metropolitana de Santiago,13127.0,Recoleta,-33.410284,-70.631485,SAPU Valdivieso
06-336,5.0,Región De Valparaíso,5601.0,San Antonio,-33.56746,-71.605783,Centro de Salud Familiar Diputado Manuel Bustos Huerta
06-105,5.0,Región De Valparaíso,5102.0,Casablanca,-33.319197,-71.407904,Hospital San José (Casablanca)
04-304,3.0,Región De Atacama,3101.0,Copiapó,-27.383322,-70.335486,Centro de Salud Familiar Rosario-Palomar
03-802,2.0,Región De Antofagasta,2101.0,Antofagasta,-23.62896,-70.380026,SAPU Corvallis
17-107,16.0,Región De Ñuble,16104.0,El Carmen,-36.898017,-72.034874,Hospital Comunitario de Salud Familiar de El Carmen
10-390,13.0,Región Metropolitana de Santiago,13601.0,Talagante,-33.669665,-70.937614,Centro de Salud Familiar Dr. Alberto Allende Jones
15-320,6.0,Región Del Libertador Gral. B. O'Higgins,6205.0,Navidad,-33.953718,-71.830284,Centro de Salud Familiar Valle Mar Navidad
09-815,13.0,Región Metropolitana de Santiago,13125.0,Quilicura,-33.367266,-70.731201,SAPU Nº 1 Rodrigo Rojas Denegri
09-801,13.0,Región Metropolitana de Santiago,13127.0,Recoleta,-33.387284,-70.649895,SAR Recoleta
09-104,13.0,Región Metropolitana de Santiago,13303.0,Tiltil,-33.086793,-70.924522,Hospital de Til Til
15-311,6.0,Región Del Libertador Gral. B. O'Higgins,6107.0,Las Cabras,-34.290557,-71.307186,Centro de Salud Familiar Las Cabras
06-828,5.0,Región De Valparaíso,5604.0,El Quisco,-33.397442,-71.694379,SAPU El Quisco
16-308,7.0,Región Del Maule,7401.0,Linares,-35.851412,-71.604842,Centro de Salud Familiar Valentín Letelier
18-107,8.0,Región Del Bíobío,8109.0,Santa Juana,-37.168311,-72.94617,Hospital Clorinda Avello (Santa Juana)
18-806,8.0,Región Del Bíobío,8101.0,Concepción,-36.810113,-73.054296,SAR Tucapel
03-801,2.0,Región De Antofagasta,2101.0,Antofagasta,-23.615729,-70.382958,SAPU Antonio Rendic
21-120,9.0,Región De La Araucanía,9109.0,Loncoche,-39.371026,-72.626231,Hospital Familiar y Comunitario de Loncoche
03-350,2.0,Región de  Antofagasta,2101.0,Antofagasta,-23.569147,-70.379095,Centro Asistencial Norte (CAN)
24-145,10.0,Región De Los Lagos,10402.0,Futaleufú,-43.183387,-71.869068,Hospital de Futaleufú
25-103,11.0,Región De Aysén del General Carlos Ibañez del Campo,11301.0,Cochrane,-47.255574,-72.570726,Hospital Lord Cochrane
29-101,9.0,Región De La Araucanía,9208.0,Purén,-38.038729,-73.074992,Hospital de Purén
17-108,16.0,Región De Ñuble,16203.0,Coelemu,-36.490268,-72.70531,Hospital Comunitario de Salud Familiar Dr. Eduardo Contreras Trabucco de Coelemu
25-102,11.0,Región De Aysén del General Carlos Ibañez del Campo,11401.0,Chile Chico,-46.541656,-71.725104,Hospital Dr. Leopoldo Ortega R. (Chile Chico)
25-104,11.0,Región De Aysén del General Carlos Ibañez del Campo,11202.0,Cisnes,-44.726032,-72.680784,Hospital Dr. Jorge Ibar (Cisnes)
15-307,6.0,Región Del Libertador Gral. B. O'Higgins,6102.0,Codegua,-34.039108,-70.667039,Centro de Salud Familiar Codegua
17-103,16.0,Región De Ñuble,16102.0,Bulnes,-36.739712,-72.296417,Hospital Comunitario de Salud Familiar de Bulnes
29-108,9.0,Región De La Araucanía,9205.0,Lonquimay,-38.455032,-71.369175,Hospital de Lonquimay
23-101,10.0,Región De Los Lagos,10303.0,Purranque,-40.913644,-73.153883,Hospital de Purranque Dr. Juan Hepp Dubiau
29-103,9.0,Región De La Araucanía,9202.0,Collipulli,-37.960078,-72.435982,Hospital de Collipulli
29-107,9.0,Región De La Araucanía,9203.0,Curacautín,-38.439331,-71.891355,Hospital Dr. Oscar Hernández E.(Curacautín)
17-104,16.0,Región De Ñuble,16109.0,Yungay,-37.121823,-72.023846,Hospital Comunitario de Salud Familiar Pedro Morales Campos (Yungay)
18-802,8.0,Servicio de Salud Concepción,8108.0,San Pedro de la Paz,-73.140178,-36.840155,SAPU-Boca Sur
18-818,8.0,Región Del Bíobío,8108.0,San Pedro de la Paz,-36.887028,-73.134237,SAPU Loma Colorada
21-117,9.0,Región De La Araucanía,9114.0,Pitrufquén,-38.989944,-72.643501,Hospital de Pitrufquén
23-102,10.0,Región De Los Lagos,10305.0,Río Negro,-40.802425,-73.216531,Hospital de Río Negro
29-318,9.0,Región De La Araucanía,9211.0,Victoria,-38.235334,-72.330235,Centro de Salud Familiar Victoria
09-810,13.0,Región Metropolitana de Santiago,13301.0,Colina,-33.206836,-70.677463,SAR Colina
17-106,16.0,Región De Ñuble,16201.0,Quirihue,-36.286435,-72.547541,Hospital Comunitario de Salud Familiar de Quirihue
18-826,8.0,Región Del Bíobío,8105.0,Hualqui,-36.973597,-72.937166,SAPU Hualqui
21-313,9.0,Región De La Araucanía,9104.0,Curarrehue,-39.366187,-71.582775,Consultorio  Curarrehue
21-347,9.0,Región De La Araucanía,9101.0,Temuco,-38.713629,-72.620112,Centro de Salud Familiar Pedro de Valdivia
09-813,13.0,Región Metropolitana de Santiago,13125.0,Quilicura,-33.365685,-70.746597,SAPU Nº 2 Irene Frei de Cid
06-827,5.0,Región De Valparaíso,5602.0,Algarrobo,-33.365479,-71.668614,SAPU Algarrobo
06-826,5.0,Región De Valparaíso,5603.0,Cartagena,-33.546833,-71.598547,SAPU Cartagena
05-324,4.0,Región De Coquimbo,4301.0,Ovalle,-30.636087,-71.11613,Centro de Salud Familiar Sotaquí
05-315,4.0,Región De Coquimbo,4301.0,Ovalle,-30.579312,-71.408474,Centro de Salud Familiar Cerrillos de Tamaya
03-311,2.0,Región De Antofagasta,2203.0,San Pedro de Atacama,-22.910429,-68.19912,Centro de Salud Familiar San Pedro Atacama
03-104,2.0,Región De Antofagasta,2102.0,Mejillones,-23.102666,-70.446328,Hospital de Mejillones
03-103,2.0,Región De Antofagasta,2104.0,Taltal,-25.408169,-70.481211,Hospital 21 de Mayo (Taltal)
02-802,1.0,Región De Tarapacá,1101.0,Iquique,-20.236832,-70.136531,SAPU Cirujano Guzmán
18-108,8.0,Región Del Bíobío,8104.0,Florida,-36.822577,-72.649123,Hospital San Agustín de Florida
29-301,9.0,Región De La Araucanía,9201.0,Angol,-37.818832,-72.673257,Centro de Salud Familiar Huequén
10-345,13.0,Región Metropolitana de Santiago,13117.0,Lo Prado,-33.436875,-70.740448,Centro de Salud Familiar Dr. Carlos Avendaño
09-890,13.0,Región Metropolitana de Santiago,13127.0,Recoleta,-33.386767,-70.641561,SAPU Cristo Vive
25-101,11.0,Región De Aysén del General Carlos Ibañez del Campo,11201.0,Aisén,-45.408518,-72.683815,Hospital de Puerto Aysén
24-125,10.0,Región De Los Lagos,10108.0,Maullín,-41.616851,-73.598474,Hospital de Maullín
22-811,14.0,Región deLos Ríos,14103.0,Lanco,-39.540835,-72.507917,SAPU Malalhue
06-319,5.0,Región De Valparaíso,5601.0,San Antonio,-33.602121,-71.613408,Centro de Salud Familiar Barrancas
06-307,5.0,Región De Valparaíso,5101.0,Valparaíso,-33.04907,-71.631253,Centro de Salud Familiar Marcelo Mena
10-320,13.0,Región Metropolitana de Santiago,13126.0,Quinta Normal,-33.41645,-70.696399,Centro de Salud Familiar Lo Franco
11-378,13.0,Región Metropolitana de Santiago,13119.0,Maipú,-33.484273,-70.771353,Centro de Salud Familiar Dr. Iván Insunza
16-101,7.0,Región Del Maule,7308.0,Teno,-34.870946,-71.16378,Hospital de Teno
03-309,2.0,Región De Antofagasta,2302.0,Maria Elena,-22.341088,-69.664249,Centro de Salud Familiar María Elena
03-308,2.0,Región De Antofagasta,2101.0,Antofagasta,-23.65102,-70.385566,Centro de Salud Familiar Central Oriente de Antofagasta
03-303,2.0,Región De Antofagasta,2101.0,Antofagasta,-23.667161,-70.403379,Centro de Salud Familiar Centro Sur de Antofagasta
16-102,7.0,Región Del Maule,7304.0,Molina,-35.107762,-71.295787,Hospital de Molina
16-104,7.0,Región Del Maule,7303.0,Licantén,-34.982716,-71.990656,Hospital de Licantén
16-112,7.0,Región Del Maule,7202.0,Chanco,-35.739564,-72.531446,Hospital Dr. Benjamín Pedreros (Chanco)
13-317,13.0,Región Metropolitana de Santiago,13105.0,El Bosque,-33.552491,-70.688809,Centro de Salud Familiar Santa Laura
13-301,13.0,Región Metropolitana de Santiago,13129.0,San Joaquín,-33.486494,-70.623533,Centro de Salud Familiar San Joaquín
16-109,7.0,Región Del Maule,7406.0,San Javier,-35.590724,-71.737445,Hospital Dr. Abel Fuentealba Lagos de San Javier
11-302,13.0,Región Metropolitana de Santiago,13106.0,Estación Central,-33.47284,-70.691894,Centro de Salud Familiar Padre Vicente Irarrázabal
09-320,13.0,Región Metropolitana de Santiago,13303.0,Tiltil,-33.135821,-70.799456,Centro de Salud Familiar Huertos Familiares
14-330,13.0,Región Metropolitana de Santiago,13110.0,La Florida,-33.547211,-70.60862,Centro de Salud Familiar Trinidad
19-306,8.0,Región Del Bíobío,8111.0,Tome,-36.634591,-72.951867,Centro de Salud Familiar Bellavista
22-302,14.0,Región De Los Ríos,14101.0,Valdivia,-39.83243,-73.216063,Centro de Salud Familiar Dr. Jorge Sabat Gozalo (Ex Gil de Castro)
24-130,10.0,Región De Los Lagos,10102.0,Calbuco,-41.769823,-73.133167,Hospital de Calbuco
24-110,10.0,Región De Los Lagos,10107.0,Llanquihue,-41.256468,-73.010592,Hospital de Llanquihue
09-312,13.0,Región Metropolitana de Santiago,13302.0,Lampa,-33.241849,-70.81415,Centro de Salud Familiar Batuco
09-811,13.0,Región Metropolitana de Santiago,13302.0,Lampa,-33.285726,-70.876254,SAPU José Bauzá Frau
16-106,7.0,Región Del Maule,7103.0,Curepto,-35.093204,-72.020986,Hospital de Curepto
16-103,7.0,Región Del Maule,7302.0,Hualañé,-34.97638,-71.805559,Hospital de Hualañé
24-115,10.0,Región De Los Lagos,10105.0,Frutillar,-41.138081,-73.031515,Hospital de Frutillar
24-120,10.0,Región De Los Lagos,10104.0,Fresia,-41.155319,-73.422972,Hospital de Fresia
24-365,10.0,Región De Los Lagos,10105.0,Frutillar,-41.129484,-73.05945,Centro de Salud Familiar Frutillar Alto
33-355,10.0,Región De Los Lagos,10206.0,Puqueldón,-42.598795,-73.676496,Centro de Salud Familiar Puqueldón
05-325,4.0,Región De Coquimbo,4101.0,La Serena,-29.868311,-71.23022,Centro de Salud Familiar Juan Pablo II (La Serena)
07-828,5.0,Región De Valparaíso,5804.0,Villa Alemana,-33.057073,-71.376086,SAPU Eduardo Frei Montalva
10-308,13.0,Región Metropolitana de Santiago,13605.0,Peñaflor,-33.6088,-70.896258,Centro de Salud Familiar Peñaflor
11-101,13.0,Región Metropolitana de Santiago,13119.0,Maipú,-33.508212,-70.774248,Hospital Clínico Metropolitano El Carmen Doctor Luis Valentín Ferrada
10-361,13.0,Región Metropolitana de Santiago,13128.0,Renca,-33.397669,-70.749713,Centro de Salud Familiar Bicentenario
13-890,13.0,Región Metropolitana de Santiago,13402.0,Buin,-33.737859,-70.741169,SAPU Buin
02-308,1.0,Región De Tarapacá,1404.0,Huara,-19.995472,-69.768842,Centro de Salud Familiar Dr. Amador Neghme Rodríguez
10-891,13.0,Región Metropolitana de Santiago,13601.0,Talagante,-33.663479,-70.929231,SAPU Marcela Jacques Vargas
15-317,6.0,Región Del Libertador Gral. B. O'Higgins,6301.0,San Fernando,-34.574193,-70.991973,Centro de Salud Familiar Chacabuco
09-824,13.0,Región Metropolitana de Santiago,13125.0,Quilicura,-33.354348,-70.738088,SAPU Presidente Salvador Allende Gossens
18-810,8.0,Región Del Bíobío,8101.0,Concepción,-36.828418,-73.066865,SAPU Juan Soto Fernández
22-315,14.0,Región De Los Ríos,14107.0,Paillaco,-40.066328,-72.869523,Centro de Salud Familiar Lautaro Caro Ríos
24-330,10.0,Región De Los Lagos,10106.0,Los Muermos,-41.39882,-73.45951,Centro de Salud Familiar Los Muermos
19-803,8.0,Región Del Bíobío,8110.0,Talcahuano,-36.75066,-73.101695,SAPU Paulina Avendaño Pereda
19-809,8.0,Región Del Bíobío,8112.0,Hualpén,-36.798678,-73.096805,SAPU Talcahuano Sur
24-380,10.0,Región De Los Lagos,10403.0,Hualaihué,-41.962714,-72.468897,Centro de Salud Familiar Río Negro Hornopirén
20-301,8.0,Región Del Bíobío,8301.0,Los Ángeles,-37.457331,-72.343014,Centro de Salud Familiar Nororiente de Los Ángeles
20-309,8.0,Región Del Bíobío,8301.0,Los Ángeles,-37.477068,-72.365242,Centro de Salud Familiar 2 Septiembre
24-140,10.0,Región De Los Lagos,10404.0,Palena,-43.617898,-71.808068,Hospital de Palena
19-802,8.0,Región Del Bíobío,8110.0,Talcahuano,-36.723746,-73.122883,SAR San Vicente
09-941,13.0,Región Metropolitana de Santiago,13107.0,Huechuraba,-33.36,-70.6834,SAPU Libertadores
07-108,5.0,Región De Valparaíso,5107.0,Quintero,-32.779236,-71.531159,Hospital Adriana Cousiño (Quintero)
14-334,13.0,Región Metropolitana de Santiago,13110.0,La Florida,-33.557178,-70.582012,Centro de Salud Familiar José Alvo
07-107,5.0,Región De Valparaíso,5404.0,Petorca,-32.251957,-70.928839,Hospital de Petorca
18-325,8.0,Región Del Bíobío,8106.0,Lota,-37.08058,-73.157274,Centro de Salud Familiar Dr. Juan Cartes Arias
20-315,8.0,Región Del Bíobío,8301.0,Los Ángeles,-37.467607,-72.383354,Centro de Salud Familiar Nuevo Horizonte
14-105,13.0,Región Metropolitana de Santiago,13110.0,La Florida,-33.514161,-70.599148,Hospital Clínico Metropolitano La Florida Dra. Eloísa Díaz Insunza
33-909,10.0,Región De Los Lagos,10201.0,Castro,-42.460661,-73.792591,Centro de Salud Familiar Quillahue
04-101,3.0,Región De Atacama,3201.0,Chañaral,-26.347153,-70.617306,Hospital Dr. Jerónimo Méndez Arancibia (Chañaral)
15-331,6.0,Región Del Libertador Gral. B. O'Higgins,6112.0,Peumo,-34.305412,-71.271083,Centro de Salud Familiar La Esperanza
04-102,3.0,Región De Atacama,3202.0,Diego de Almagro,-26.392456,-70.052331,Hospital Dr. Florencio Vargas (Diego de Almagro)
15-327,6.0,Región Del Libertador Gral. B. O'Higgins,6111.0,Olivar,-34.212979,-70.814625,Centro de Salud Familiar Olivar Alto
04-307,3.0,Región De Atacama,3101.0,Copiapó,-27.414203,-70.271182,Centro de Salud Familiar Paipote
15-322,6.0,Región Del Libertador Gral. B. O'Higgins,6115.0,Rengo,-34.348909,-70.837625,Centro de Salud Familiar Rosario
04-308,3.0,Región De Atacama,3103.0,Tierra Amarilla,-27.468757,-70.266738,Centro de Salud Familiar Dr. Salvador Allende Gossens
12-303,13.0,Región Metropolitana de Santiago,13123.0,Providencia,-33.442673,-70.597096,Centro de Salud Familiar Aguilucho
07-327,5.0,Región De Valparaíso,5109.0,Viña del Mar,-33.04637,-71.539283,Centro de Salud Familiar Las Torres
07-319,5.0,Región De Valparaíso,5501.0,Quillota,-32.938433,-71.277721,Centro de Salud Familiar San Pedro
04-322,3.0,Región De Atacama,3302.0,Alto del Carmen,-28.758503,-70.487116,Centro de Salud Familiar Alto del Carmen
15-314,6.0,Región Del Libertador Gral. B. O'Higgins,6202.0,La Estrella,-34.208966,-71.653054,Centro de Salud Familiar La Estrella
04-316,3.0,Región De Atacama,3301.0,Vallenar,-28.578074,-70.744882,Centro de Salud Familiar Baquedano
04-314,3.0,Región De Atacama,3303.0,Freirina,-28.50927,-71.074716,Centro de Salud Familiar Freirina
04-311,3.0,Región De Atacama,3202.0,Diego de Almagro,-26.253258,-69.622205,Centro de Salud Familiar El Salvador
07-821,5.0,Región De Valparaíso,5502.0,Calera,-32.775443,-71.188956,SAPU Artificio
07-352,5.0,Región De Valparaíso,5109.0,Viña del Mar,-32.99377,-71.485825,Centro de Salud Familiar Reñaca Alto Dr. Jorge Kaplan
07-311,5.0,Región De Valparaíso,5501.0,Quillota,-32.878767,-71.255684,Centro de Salud Familiar Dr. Miguel Concha
19-310,8.0,Región Del Bíobío,8112.0,Hualpén,-36.791682,-73.113829,Centro de Salud Familiar La Floresta
07-805,5.0,Región De Valparaíso,5103.0,Con Con,-32.928486,-71.515329,SAR Concón
07-802,5.0,Región De Valparaíso,5109.0,Viña del Mar,-33.020397,-71.515436,SAPU Miraflores (Viña del Mar)
07-303,5.0,Región De Valparaíso,5109.0,Viña del Mar,-32.992347,-71.525536,Centro de Salud Familiar Gómez Carreño
07-105,5.0,Región De Valparaíso,5401.0,La Ligua,-32.45048,-71.237975,Hospital San Agustín (La Ligua)
04-104,3.0,Región De Atacama,3304.0,Huasco,-28.470163,-71.22392,Hospital Dr. Manuel Magalhaes Medling (Huasco)
01-303,15.0,Región De Arica Parinacota,15101.0,Arica,-18.483924,-70.282422,Centro de Salud Familiar E.U. Iris Veliz Hume (Ex Oriente)
33-486,10.0,Región De Los Lagos,10202.0,Ancud,-41.828939,-73.52707,Posta de Salud Rural Chacao
11-381,13.0,Región Metropolitana de Santiago,13101.0,Santiago,-33.438921,-70.672467,Centro de Salud Familiar Ignacio Domeyko
11-903,13.0,Región Metropolitana de Santiago,13102.0,Cerrillos,-33.501479,-70.733545,SAR Enfermera Sofía Pincheira
06-904,5.0,Región De Valparaíso,5101.0,Valparaíso,-33.049205,-71.616665,SAR Plan de Valparaíso
22-314,14.0,Región De Los Ríos,14101.0,Valdivia,-39.849723,-73.223407,Centro de Salud Familiar Angachilla
08-900,5.0,Región De Valparaíso,5301.0,Los Andes,-32.839397,-70.603024,SAPU Centenario
18-902,8.0,Región Del Bíobío,8101.0,Concepción,-36.816576,-73.032147,SAR Víctor Manuel Fernández
03-910,2.0,Región De Antofagasta,2201.0,Calama,-22.454188,-68.939439,SAR Alemania
26-102,12.0,Región De Magallanes y de la Antártica Chilena,12301.0,Porvenir,-53.298162,-70.358384,Hospital Dr. Marco Antonio Chamorro ( Porvenir)
26-704,12.0,Región De Magallanes y de la Antártica Chilena,12201.0,Cabo de Hornos,-54.935209,-67.600393,Hospital Comunitario Cristina Calderón de Puerto Williams
22-908,14.0,Región De Los Ríos,14101.0,Valdivia,-39.825987,-73.24452,SAR Barrios Bajos
25-900,11.0,Región De Aysén del General Carlos Ibañez del Campo,11101.0,Coyhaique,-45.579991,-72.046529,SAPU Dr. Alejandro Gutiérrez
16-932,7.0,Región Del Maule,7407.0,Villa Alegre,-35.686114,-71.735372,SAR Villa Alegre
10-907,13.0,Región Metropolitana de Santiago,13117.0,Lo Prado,-33.451978,-70.715985,SAR Dr. Raúl Yazigi
10-920,13.0,Región Metropolitana de Santiago,13124.0,Pudahuel,-33.437182,-70.750685,SAR La Estrella
10-393,13.0,Región Metropolitana de Santiago,13502.0,Alhué,-34.032484,-71.100076,Centro de Salud Familiar Villa Alhué
19-804,8.0,Región Del Bíobío,8107.0,Penco,-36.742785,-72.990349,SAR Penco
19-805,8.0,Región Del Bíobío,8111.0,Tome,-36.600646,-72.960892,SAR Dr. Alberto Reyes
10-425,13.0,Región Metropolitana de Santiago,13603.0,Isla de Maipo,-33.734795,-70.861701,Centro de Salud Familiar La Islita
10-929,13.0,Región Metropolitana de Santiago,13601.0,Talagante,-33.662391,-70.916975,SAR Oriente María Eugenia Torres
01-901,15.0,Región De Arica Parinacota,15101.0,Arica,-18.483845,-70.282275,SAR E.U. Iris Véliz Hume
10-387,13.0,Región Metropolitana de Santiago,13505.0,San Pedro,-33.895313,-71.454412,Centro de Salud Familiar San Pedro
09-316,13.0,Región Metropolitana de Santiago,13301.0,Colina,-33.184133,-70.653657,Centro de Salud Familiar Esmeralda
15-925,6.0,Región Del Libertador Gral. B. O'Higgins,6115.0,Rengo,-34.394698,-70.851097,SAR Dr. Rienzi Valencia
18-912,8.0,Región Del Bíobío,8103.0,Chiguayante,-36.92623,-73.029039,SAR Chiguayante
28-901,8.0,Región Del Bíobío,8206.0,Los Álamos,-37.625578,-73.461324,SAR Los Álamos
18-913,8.0,Región Del Bíobío,8108.0,San Pedro de la Paz,-36.835298,-73.120431,SAR San Pedro
15-926,6.0,Región Del Libertador Gral. B. O'Higgins,6310.0,Santa Cruz,-34.634649,-71.368656,SAR Santa Cruz
22-900,14.0,Región De Los Ríos,14202.0,Futrono,-40.125493,-72.382859,SAPU Belarmina Paredes
10-905,13.0,Región Metropolitana de Santiago,13501.0,Melipilla,-33.700169,-71.217991,SAPU Dr. Francisco Boris Soler
24-900,10.0,Región De Los Lagos,10101.0,Puerto Montt,-41.468721,-72.916311,SAPU Carmela Carvajal
29-900,9.0,Región De La Araucanía,9201.0,Angol,-37.818657,-72.673105,SAPU Huequén
22-901,14.0,Región De Los Ríos,14203.0,Lago Ranco,-40.32203,-72.471707,SAPU Ranco
08-104,5.0,Región De Valparaíso,5705.0,Putaendo,-32.622065,-70.717848,Hospital San Antonio (Putaendo)
15-953,6.0,Región Del Libertador Gral. B. O'Higgins,6111.0,Olivar,-34.212979,-70.814625,SUR Olivar
05-825,4.0,Región De Coquimbo,4101.0,La Serena,-29.932749,-71.258172,SAPU Cardenal Caro
21-111,9.0,Región De La Araucanía,9106.0,Galvarino,-38.410261,-72.785259,Hospital de Galvarino
07-906,5.0,Región De Valparaíso,5801.0,Quilpué,-33.054379,-71.466472,SAPU Pompeya
23-913,10.0,Región De Los Lagos,10306.0,San Juan de la Costa,-40.605089,-73.468176,SUR Puaucho
17-915,16.0,Región De Ñuble,16105.0,Pemuco,-36.978088,-72.090602,SUR Pemuco
33-913,10.0,Región De Los Lagos,10205.0,Dalcahue,-42.37759,-73.676554,SUR Dalcahue
02-921,1.0,Región De Tarapacá,1405.0,Pica,-20.490293,-69.32727,SUR Pica
10-911,13.0,Región Metropolitana de Santiago,13117.0,Lo Prado,-33.45001,-70.730382,SAPU Pablo Neruda
10-900,13.0,Región Metropolitana de Santiago,13103.0,Cerro Navia,-33.419555,-70.751003,SAPU Luis Chavarría
19-986,8.0,Región Del Bíobío,8112.0,Hualpén,-36.791847,-73.114063,SAPU La Floresta
21-934,9.0,Región De La Araucanía,9104.0,Curarrehue,-39.366187,-71.582775,SUR Curarrehue
06-917,5.0,Región De Valparaíso,5604.0,El Quisco,-33.397509,-71.694278,SUR El Quisco
10-913,13.0,Región Metropolitana de Santiago,13124.0,Pudahuel,-33.456985,-70.74293,SAPU Violeta Parra
29-901,9.0,Región De La Araucanía,9211.0,Victoria,-38.235162,-72.329964,SAR Victoria
15-902,6.0,Región Del Libertador Gral. B. O'Higgins,6115.0,Rengo,-34.348629,-70.837337,SAPU Rosario
17-917,16.0,Región De Ñuble,16303.0,Ñiquén,-36.282974,-71.813887,SUR Ñiquén
06-314,5.0,Región De Valparaíso,5601.0,San Antonio,-33.58948,-71.609893,Centro de Salud Familiar San Antonio
10-918,13.0,Región Metropolitana de Santiago,13602.0,El Monte,-33.682045,-70.985912,SAPU El Monte
06-918,5.0,Región De Valparaíso,5605.0,El Tabo,-33.456737,-71.663179,SUR El Tabo
02-924,1.0,Región De Tarapacá,1402.0,Camiña,-19.313005,-69.427211,CEAR Camiña
17-924,16.0,Región De Ñuble,16207.0,Treguaco,-36.430229,-72.671242,SUR Treguaco
02-925,1.0,Región De Tarapacá,1403.0,Colchane,-19.275789,-68.640547,CEAR Colchane
17-916,16.0,Región De Ñuble,16305.0,San Nicolás,-36.499022,-72.212254,SUR San Nicolás
21-903,9.0,Región De La Araucanía,9105.0,Freire,-38.953584,-72.62818,SAPU Freire
08-102,5.0,Región De Valparaíso,5703.0,Llaillay,-32.842771,-70.954945,Hospital San Francisco (Llaillay)
21-904,9.0,Región De La Araucanía,9101.0,Temuco,-38.762764,-72.753469,SAR Labranza
04-903,3.0,Región De Atacama,3101.0,Copiapó,-27.414011,-70.271001,SAR Paipote
04-904,3.0,Región De Atacama,3102.0,Caldera,-27.073415,-70.824877,SAR Rosario Corvalán-Caldera
23-985,10.0,Región De Los Lagos,10301.0,Osorno,-40.572135,-73.125175,SAPU Dr. Marcelo Lopetegui Adams
15-936,6.0,Región Del Libertador Gral. B. O'Higgins,6107.0,Las Cabras,-34.290557,-71.307186,SUR Las Cabras
16-947,7.0,Región Del Maule,7304.0,Molina,-35.055843,-71.274091,SUR Lontue
23-105,10.0,Región De Los Lagos,10307.0,San Pablo,-40.367661,-73.261509,Hospital Pu Mulen Quilacahuín
21-112,9.0,Región De La Araucanía,9119.0,Vilcún,-38.666384,-72.227574,Hospital de Vilcún
10-902,13.0,Región Metropolitana de Santiago,13103.0,Cerro Navia,-33.433509,-70.731486,SAPU Dr. Arturo Albertz
20-909,8.0,Región Del Bíobío,8301.0,Los Ángeles,-37.491898,-72.327766,SAR Entre Ríos
01-912,15.0,Región De Arica Parinacota,15201.0,Putre,-18.197592,-69.557384,SUR Putre
16-951,7.0,Región Del Maule,7306.0,Romeral,-34.95981,-71.127052,SUR Romeral
10-901,13.0,Región Metropolitana de Santiago,13601.0,Talagante,-33.669668,-70.937885,SAPU Dr. Alberto Allende Jones
21-201,9.0,Región De La Araucanía,9112.0,Padre Las Casas,-38.831702,-72.693576,Hospital Makewe
03-900,2.0,Región De Antofagasta,2101.0,Antofagasta,-23.650972,-70.385718,SAPU Central Oriente de Antofagasta
14-900,13.0,Región Metropolitana de Santiago,13110.0,La Florida,-33.557172,-70.581816,SAPU José Alvo
07-106,5.0,Región De Valparaíso,5402.0,Cabildo,-32.428287,-71.067794,Hospital Dr. Víctor Hugo Moll (Cabildo)
04-909,3.0,Región De Atacama,3101.0,Copiapó,-27.383312,-70.335219,SAPU El Palomar
05-942,4.0,Región De Coquimbo,4102.0,Coquimbo,-29.995883,-71.336308,SAPU El Sauce
16-944,7.0,Región Del Maule,7301.0,Curicó,-35.06974,-71.155069,SUR Los Niches
20-901,8.0,Región Del Bíobío,8301.0,Los Ángeles,-37.457169,-72.342783,SAPU Nororiente
04-901,3.0,Región De Atacama,3101.0,Copiapó,-27.368832,-70.312004,SAPU Dr. Bernardo Mellibovsky
20-902,8.0,Región Del Bíobío,8301.0,Los Ángeles,-37.467482,-72.383515,SAPU Nuevo Horizonte
17-923,16.0,Región De Ñuble,16102.0,Bulnes,-36.828547,-72.33321,SUR Santa Clara
15-948,6.0,Región Del Libertador Gral. B. O'Higgins,6205.0,Navidad,-33.953718,-71.830284,SUR Navidad
20-900,8.0,Región Del Bíobío,8301.0,Los Ángeles,-37.477078,-72.364973,SAPU 2 Septiembre
10-933,13.0,Región Metropolitana de Santiago,13505.0,San Pedro,-33.895313,-71.454412,SUR San Pedro
10-934,13.0,Región Metropolitana de Santiago,13502.0,Alhué,-34.032484,-71.100076,SUR Villa Alhué
21-118,9.0,Región De La Araucanía,9118.0,Toltén,-39.176865,-73.164154,Hospital de Toltén
02-900,1.0,Región De Tarapacá,1404.0,Huara,-19.995399,-69.768747,SAPU Huara
21-200,9.0,Región De La Araucanía,9115.0,Pucón,-39.278833,-71.97429,Hospital San Francisco de Pucón (D)
21-119,9.0,Región De La Araucanía,9107.0,Gorbea,-39.105881,-72.668275,Hospital de Gorbea
03-945,2.0,Región De Antofagasta,2103.0,Sierra Gorda,-22.890859,-69.320709,SUR Sierra Gorda
02-905,1.0,Región De Tarapacá,1107.0,Alto Hospicio,-20.27262,-70.105597,Centro Comunitario de Salud Familiar La Tortuga
16-957,7.0,Región Del Maule,7109.0,San Clemente,-35.818345,-70.820292,SUR El Álamo
10-921,13.0,Región Metropolitana de Santiago,13124.0,Pudahuel,-33.442413,-70.764867,SAPU Pudahuel Poniente
33-912,10.0,Región De Los Lagos,10203.0,Chonchi,-42.622752,-73.777951,SUR Chonchi
15-929,6.0,Región Del Libertador Gral. B. O'Higgins,6117.0,San Vicente,-34.439959,-70.992248,SAR San Vicente de Tagua Tagua
33-910,10.0,Región De Los Lagos,10208.0,Quellón,-43.11547,-73.618541,Centro Comunitario de Salud Familiar Villa Aytue
06-920,5.0,Región De Valparaíso,5606.0,Santo Domingo,-33.64399,-71.612435,CEAR Rocas de Santo Domingo
17-920,16.0,Región De Ñuble,16106.0,Pinto,-36.704575,-71.893164,SUR Pinto
24-976,10.0,Región De Los Lagos,10401.0,Chaitén,-42.918615,-72.710261,Hospital de Chaitén
04-900,3.0,Región De Atacama,3301.0,Vallenar,-28.578096,-70.744945,SAPU Baquedano
21-933,9.0,Región De La Araucanía,9112.0,Padre Las Casas,-38.774226,-72.59746,SAR Conun Huenu
21-902,9.0,Región De La Araucanía,9101.0,Temuco,-38.717965,-72.562083,SAPU Pueblo Nuevo
21-110,9.0,Región De La Araucanía,9108.0,Lautaro,-38.537076,-72.418384,Hospital Dr. Abraham Godoy Peña (Lautaro)
26-900,12.0,Región De Magallanes y de la Antártica Chilena,12101.0,Punta Arenas,-53.165297,-70.930831,SAPU 18 de Septiembre
21-946,9.0,Región De La Araucanía,9114.0,Pitrufquén,-38.983066,-72.634758,SAPU Pitrufquén
05-940,4.0,Región De Coquimbo,4102.0,Coquimbo,-29.955866,-71.245572,SAPU Lila Cortés
02-917,1.0,Región De Tarapacá,1101.0,Iquique,-20.702283,-70.187312,SUR Chanavayita
05-937,4.0,Región De Coquimbo,4301.0,Ovalle,-30.579478,-71.201981,SUR Tamaya
21-920,9.0,Región De La Araucanía,9108.0,Lautaro,-38.526034,-72.440418,SAR Lautaro
22-923,14.0,Región De los Ríos,14108.0,Panguipulli,-39.647102,-72.341331,SUR Choshuenco
17-919,16.0,Región De Ñuble,16206.0,Ránquil,-36.604107,-72.536427,SUR Ñipas
21-116,9.0,Región De La Araucanía,9116.0,Saavedra,-38.799293,-73.392623,Hospital Dr. Arturo Hillerns Larrañaga (Saavedra)
16-967,7.0,Región Del Maule,7408.0,Yerbas Buenas,-35.75062,-71.588084,SUR Yerbas Buenas
04-930,3.0,Región De Atacama,3202.0,Diego de Almagro,-26.253258,-69.622205,SUR Diego de Almagro
33-911,10.0,Región De Los Lagos,10209.0,Quemchi,-42.145307,-73.478935,SUR Quemchi
03-932,2.0,Región De Antofagasta,2203.0,San Pedro de Atacama,-23.591237,-67.890345,SUR Socaire
24-902,10.0,Región De Los Lagos,10106.0,Los Muermos,-41.398615,-73.459672,SAPU Los Muermos
13-911,13.0,Región Metropolitana de Santiago,13129.0,San Joaquín,-33.486624,-70.623535,SAR Enrique Molina
28-903,8.0,Región Del Bíobío,8207.0,Tirúa,-38.340658,-73.493822,SAR Tirua
17-913,16.0,Región De Ñuble,16108.0,San Ignacio,-36.798538,-72.032209,SUR San Ignacio
15-956,6.0,Región Del Libertador Gral. B. O'Higgins,6112.0,Peumo,-34.305412,-71.271083,SUR Peumo
12-904,13.0,Región Metropolitana de Santiago,13123.0,Providencia,-33.443182,-70.597762,SAPU Aguilucho
06-914,5.0,Región De Valparaíso,5101.0,Valparaíso,-33.104226,-71.667873,SUR Laguna Verde
05-900,4.0,Región De Coquimbo,4101.0,La Serena,-29.868305,-71.229878,SAPU Juan Pablo II
23-911,10.0,Región De Los Lagos,10307.0,San Pablo,-40.406617,-73.007752,SUR San Pablo
05-934,4.0,Región De Coquimbo,4304.0,Punitaqui,-30.833341,-71.255703,SUR Punitaqui
33-900,10.0,Región De Los Lagos,10201.0,Castro,-42.460482,-73.792562,SAR Castro
04-929,3.0,Región De Atacama,3302.0,Alto del Carmen,-28.758503,-70.487116,SUR Alto del Carmen
28-904,8.0,Región Del Bíobío,8202.0,Arauco,-37.167308,-73.187481,SUR Laraquete
10-904,13.0,Región Metropolitana de Santiago,13605.0,Peñaflor,-33.610078,-70.87153,SAPU Dr. Fernando Monckeberg
16-970,7.0,Región Del Maule,7402.0,Colbún,-35.760574,-71.418192,SUR Panimavida
02-920,1.0,Región De Tarapacá,1404.0,Huara,-19.924305,-69.511533,SUR Tarapacá
16-900,7.0,Región Del Maule,7401.0,Linares,-35.85155,-71.604769,SAPU Valentín Letelier
02-919,1.0,Región De Tarapacá,1403.0,Colchane,-19.469182,-68.644846,SUR Cariquima
17-922,16.0,Región De Ñuble,16108.0,San Ignacio,-36.843283,-72.102638,SUR Quiriquina
06-912,5.0,Región De Valparaíso,5104.0,Juan Fernández,-33.640893,-78.831374,SUR Juan Fernández
02-922,1.0,Región De Tarapacá,1402.0,Camiña,-19.312365,-69.426272,SUR Camiña
22-902,14.0,Región De Los Ríos,14101.0,Valdivia,-39.873346,-73.395177,SAPU Niebla
17-912,16.0,Región De Ñuble,16202.0,Cobquecura,-36.132808,-72.793238,SUR Cobquecura
16-948,7.0,Región Del Maule,7303.0,Licanten,-34.934421,-72.18039,SUR Iloca
14-951,13.0,Región Metropolitana de Santiago,13110.0,La Florida,-33.547094,-70.608477,SAPU Trinidad
03-926,2.0,Región De Antofagasta,2101.0,Antofagasta,-23.694988,-70.413891,SAR Coviefi
17-900,16.0,Región De Ñuble,16101.0,Chillán ,-36.618385,-72.118026,SAPU Isabel Riquelme
10-919,13.0,Región Metropolitana de Santiago,13128.0,Renca,-33.391219,-70.698838,SAPU Huamachuco
10-909,13.0,Región Metropolitana de Santiago,13603.0,Isla de Maipo,-33.748954,-70.903463,SAPU Isla de Maipo
18-924,8.0,Región Del Bíobío,8108.0,San Pedro de la Paz,-36.839997,-73.140134,SAR Boca Sur
19-900,8.0,Región Del Bíobío,8111.0,Tome,-36.634534,-72.9516,SAPU Bellavista
11-901,13.0,Región Metropolitana de Santiago,13119.0,Maipú,-33.48424,-70.771537,SAPU Dr. Iván Insunza
15-941,6.0,Región Del Libertador Gral. B. O'Higgins,6302.0,Chepica,-34.733507,-71.268165,SUR Chépica
08-811,5.0,Región De Valparaíso,5701.0,San Felipe,-32.738892,-70.726956,SAPU San Felipe
09-914,13.0,Región Metropolitana de Santiago,13301.0,Colina,-33.184133,-70.653657,SAPU Esmeralda
05-928,4.0,Región De Coquimbo,4301.0,Ovalle,-30.610497,-71.116025,SAPU Fray Jorge
15-937,6.0,Región Del Libertador Gral. B. O'Higgins,6110.0,Mostazal,-33.978317,-70.708128,SUR San Francisco de Mostazal
05-927,4.0,Región De Coquimbo,4303.0,Monte Patria,-30.696135,-70.958212,SAR Monte Patria
15-955,6.0,Región Del Libertador Gral. B. O'Higgins,6116.0,Requínoa,-34.287958,-70.817122,SUR Requínoa
10-903,13.0,Región Metropolitana de Santiago,13117.0,Lo Prado,-33.437066,-70.740457,SAPU Dr. Avendaño
03-917,2.0,Región De Antofagasta,2101.0,Antofagasta,-23.569147,-70.379095,Centro Oncológico del Norte (CON)
22-919,14.0,Región De los Ríos,14106.0,Mariquina,-39.538884,-72.971888,SUR Mariquina
23-912,10.0,Región De Los Lagos,10306.0,San Juan de la Costa,-40.586693,-73.468094,SUR Bahía Mansa
06-330,5.0,Región De Valparaíso,5101.0,Valparaíso,-33.056307,-71.577235,Centro de Salud Familiar San José de Rodelillo
07-109,5.0,Región De Valparaíso,5804.0,Villa Alemana,-33.037787,-71.356835,"Hospital Juana Ross de Edwards (Peñablanca, Villa Alemana)"
06-916,5.0,Región De Valparaíso,5605.0,El Tabo,-33.456389,-71.662308,CEAR El Tabo
15-938,6.0,Región Del Libertador Gral. B. O'Higgins,6308.0,Placilla,-34.639175,-71.117002,SUR Placilla
10-915,13.0,Región Metropolitana de Santiago,13128.0,Renca,-33.39774,-70.749863,SAR Bicentenario
12-320,13.0,Región Metropolitana de Santiago,13113.0,La Reina,-33.456864,-70.532647,Centro de Salud Familiar Juan Pablo II ( La Reina)
05-935,4.0,Región De Coquimbo,4305.0,Río Hurtado,-30.396395,-70.87213,SUR Pichasca
21-900,9.0,Región De La Araucanía,9101.0,Temuco,-38.756391,-72.623384,SAPU Amanecer
22-925,14.0,Región De Los Ríos,14107.0,Paillaco,-40.071998,-73.080761,SAPU Paillaco
20-916,8.0,Región Del Bíobío,8301.0,Los Ángeles,-37.465835,-72.581752,SUR Santa Fe
15-949,6.0,Región Del Libertador Gral. B. O'Higgins,6206.0,Paredones,-34.642803,-71.898699,SUR Paredones
16-955,7.0,Región Del Maule,7102.0,Constitución,-35.451167,-72.277477,SUR Santa Olga
16-971,7.0,Región Del Maule,7203.0,Pelluhue,-35.846509,-72.635572,SUR Curanipe
07-104,5.0,Región De Valparaíso,5802.0,Limache,-32.998637,-71.268427,Hospital Santo Tomás (Limache)
06-903,5.0,Región De Valparaíso,5101.0,Valparaíso,-33.061061,-71.592518,SAPU Reina Isabel II
10-917,13.0,Región Metropolitana de Santiago,13501.0,Melipilla,-33.681495,-71.225757,SAPU Dr. Edelberto Elgueta
10-932,13.0,Región Metropolitana de Santiago,13603.0,Isla de Maipo,-33.749042,-70.903306,SUR Isla de Maipo
24-901,10.0,Región De Los Lagos,10105.0,Frutillar,-41.129588,-73.059637,SAPU Frutillar
05-936,4.0,Región De Coquimbo,4104.0,La Higuera,-29.507022,-71.249606,SUR La Higuera
16-962,7.0,Región Del Maule,7107.0,Pencahue,-35.397854,-71.798241,SUR Pencahue
16-964,7.0,Región Del Maule,7104.0,Empedrado,-35.590225,-72.281722,SUR Empedrado
33-914,10.0,Región De Los Lagos,10206.0,Puqueldón,-42.598831,-73.676567,SUR Puqueldón
28-906,8.0,Región Del Bíobío,8202.0,Arauco,-37.256374,-73.241926,SUR Carampangue
15-935,6.0,Región Del Libertador Gral. B. O'Higgins,6307.0,Peralillo,-34.477982,-71.477109,SUR Peralillo
10-906,13.0,Región Metropolitana de Santiago,13124.0,Pudahuel,-33.458104,-70.761149,SAPU Dr. Gustavo Molina
10-910,13.0,Región Metropolitana de Santiago,13126.0,Quinta Normal,-33.42256,-70.69483,SAPU Lo Franco
10-922,13.0,Región Metropolitana de Santiago,13117.0,Lo Prado,-33.439204,-70.709532,SAPU Santa Anita
17-914,16.0,Región De Ñuble,16304.0,San Fabián,-36.554259,-71.553989,SUR San Fabián
10-916,13.0,Región Metropolitana de Santiago,13103.0,Cerro Navia,-33.417692,-70.74122,SAPU Dr. Adalberto Steeger
15-901,6.0,Región Del Libertador Gral. B. O'Higgins,6101.0,Rancagua,-34.14935,-70.709235,SAPU Ignacio Caroca
28-900,8.0,Región Del Bíobío,8205.0,Curanilahue,-37.480796,-73.333769,SAPU Eleuterio Ramírez
23-910,10.0,Región De Los Lagos,10304.0,Puyehue,-40.684258,-72.602616,SAPU Entre Lagos
17-910,16.0,Región De Ñuble,16205.0,Portezuelo,-36.529724,-72.428872,SUR Portezuelo
22-903,14.0,Región De Los Ríos,14108.0,Panguipulli,-39.643617,-72.336993,SAR Panguipulli
11-923,13.0,Región Metropolitana de Santiago,13101.0,Santiago,-33.438921,-70.672467,SAPU Ignacio Domeyko
17-921,16.0,Región De Ñuble,16302.0,Coihueco,-36.625385,-71.828269,SUR Michelle Chandía Alarcón
21-908,9.0,Región de La Araucanía,9112.0,Padre Las Casas,-38.772752,-72.588964,SAPU Pulmahue
17-906,16.0,Región De Ñuble,16103.0,Chillán Viejo,-36.630177,-72.10684,SAR Dra. Michelle Bachelet Jeria
05-826,4.0,Región De Coquimbo,4101.0,La Serena,-29.905824,-71.249704,SAR Emilio Schaffhauser
13-910,13.0,Región Metropolitana de Santiago,13105.0,El Bosque,-33.546191,-70.683983,SAPU Santa Laura
23-104,10.0,Región De Los Lagos,10306.0,San Juan de la Costa,-40.487955,-73.405041,Hospital Futa Sruka Lawenche Kunko Mapu Mo
10-908,13.0,Región Metropolitana de Santiago,13126.0,Quinta Normal,-33.430472,-70.714164,SAPU Garín
16-309,7.0,Región Del Maule,7401.0,Linares,-35.851409,-71.590216,Centro de Salud Familiar San Juan Dios
16-946,7.0,Región Del Maule,7308.0,Teno,-34.822251,-71.020763,SUR Morza
10-914,13.0,Región Metropolitana de Santiago,13504.0,Maria Pinto,-33.517179,-71.124818,SAPU María Pinto
15-900,6.0,Región Del Libertador Gral. B. O'Higgins,6301.0,San Fernando,-34.574329,-70.991749,SAPU Centro
05-933,4.0,Región De Coquimbo,4105.0,Paiguano,-30.025368,-70.517428,SUR Paihuano
21-905,9.0,Región De La Araucanía,9120.0,Villarrica,-39.30309,-72.225823,SAR Los Volcanes
02-918,1.0,Región De Tarapacá,1403.0,Colchane,-19.276089,-68.636574,SUR Colchane
16-956,7.0,Región Del Maule,7102.0,Constitución,-35.212861,-72.284449,SUR Putu
16-959,7.0,Región Del Maule,7108.0,Río Claro,-35.28283,-71.255588,SUR Río Claro
07-904,5.0,Región De Valparaíso,5501.0,Quillota,-32.938338,-71.277685,SAPU San Pedro
16-969,7.0,Región Del Maule,7402.0,Colbún,-35.697141,-71.402967,SUR Colbun
03-901,2.0,Región De Antofagasta,2101.0,Antofagasta,-23.667232,-70.403416,SAPU Centro Sur de Antofagasta
17-911,16.0,Región De Ñuble,16107.0,Quillón,-36.741424,-72.46883,SUR Quillón
16-965,7.0,Región Del Maule,7401.0,Linares,-35.829975,-71.589966,SUR Vara Gruesa
06-909,5.0,Región De Valparaíso,5605.0,El Tabo,-33.456697,-71.663341,SAPU El Tabo
04-932,3.0,Región De Atacama,3103.0,Tierra Amarilla,-27.468757,-70.266738,SUR Tierra Amarilla
16-966,7.0,Región Del Maule,7405.0,Retiro,-36.051427,-71.760991,SUR Marta Estevez - Retiro
33-915,10.0,Región De Los Lagos,10202.0,Ancud,-41.828651,-73.52584,SUR Chacao
22-922,13.0,Metropolitana de Santiago,13103.0,Cerro Navia,-33.433509,-70.731486,SAPU Cerro Navia
10-912,13.0,Región Metropolitana de Santiago,13605.0,Peñaflor,-33.608746,-70.895925,SAPU Peñaflor
21-907,9.0,Región De La Araucanía,9101.0,Temuco,-38.713795,-72.619907,SAR Pedro de Valdivia
04-902,3.0,Región De Atacama,3301.0,Vallenar,-28.590365,-70.758589,SAPU Joan Crawford Astudillo
04-931,3.0,Región De Atacama,3303.0,Freirina,-28.50927,-71.074716,SUR Freirina
21-115,9.0,Región De La Araucanía,9102.0,Carahue,-38.712071,-73.160126,Hospital Familiar y Comunitario Carahue
16-968,7.0,Región Del Maule,7406.0,San Javier,-35.574794,"-71,672173",SUR El Aromo
28-907,8.0,Región Del Bíobío,8202.0,Arauco,-37.231387,-73.440116,SUR Tubul
16-952,7.0,Región Del Maule,7307.0,Sagrada Familia,-34.997999,-71.387451,SUR Sagrada Familia
16-950,7.0,Región Del Maule,7305.0,Rauco,-34.923461,-71.317285,SUR Rauco
15-952,6.0,Región Del Libertador Gral. B. O'Higgins,6102.0,Codegua,-34.039108,-70.667039,SUR Codegua
15-939,6.0,Región Del Libertador Gral. B. O'Higgins,6104.0,Coltauco,-34.287581,-71.08382,SUR Coltauco
18-977,8.0,Región Del Bíobío,8106.0,Lota,-37.080633,-73.157485,SAR Dr. Juan Cartes Arias
03-943,2.0,Región De Antofagasta,2103.0,Sierra Gorda,-23.335784,-69.845764,SUR Baquedano
22-920,14.0,Región De los Ríos,14105.0,Máfil,-39.665761,-72.953038,SUR Máfil
21-901,9.0,Región De La Araucanía,9115.0,Pucón,-39.280151,-71.960497,SAPU Pucón
15-950,6.0,Región Del Libertador Gral. B. O'Higgins,6202.0,La Estrella,-34.208966,-71.653054,SUR La Estrella
15-951,6.0,Región Del Libertador Gral. B. O'Higgins,6105.0,Doñihue,-34.223273,-70.961128,SUR Doñihue
07-900,5.0,Región De Valparaíso,5109.0,Viña del Mar,-32.99234,-71.52585,SAPU Gómez Carreño
16-953,7.0,Región Del Maule,7307.0,Sagrada Familia,-35.095915,-71.614724,SUR Villa Prat
08-105,5.0,Región De Valparaíso,5705.0,Putaendo,-32.619019,-70.688607,Hospital Psiquiátrico Dr. Philippe Pinel (Putaendo)
22-921,14.0,Región De los Ríos,14108.0,Panguipulli,-39.568322,-72.341102,SUR Coñaripe
16-960,7.0,Región Del Maule,7106.0,Pelarco,-35.382956,-71.446452,SUR Pelarco
16-954,7.0,Región Del Maule,7101.0,Talca,-35.472053,-71.557428,SUR Mercedes
15-954,6.0,Región Del Libertador Gral. B. O'Higgins,6109.0,Malloa,-34.441445,-70.944302,SUR de Malloa
07-903,5.0,Región De Valparaíso,5109.0,Viña del Mar,-32.993925,-71.486063,SAPU Reñaca Alto
16-961,7.0,Región Del Maule,7110.0,San Rafael,-35.306356,-71.517781,SUR San Rafael
16-963,7.0,Región Del Maule,7105.0,Maule,-35.524906,-71.672173,SAPU Maule
16-958,7.0,Región Del Maule,7109.0,San Clemente,-35.641248,-71.262043,SUR El Colorado
06-900,5.0,Región De Valparaíso,5601.0,San Antonio,-33.601628,-71.614047,SAPU Barrancas
21-113,9.0,Región De La Araucanía,9103.0,Cunco,-38.930939,-72.037611,Hospital Dr. Eduardo González Galeno (Cunco)
16-949,7.0,Región Del Maule,7309.0,Vichuquen,-34.878802,-71.994221,SUR Vichuquén
21-910,9.0,Región De La Araucanía,9120.0,Villarrica,-39.294342,-72.220164,SAPU Villarica
06-901,5.0,Región De Valparaíso,5601.0,San Antonio,-33.567502,-71.606125,SAPU Diputado Manuel Bustos Huerta
07-103,5.0,Región De Valparaíso,5502.0,Calera,-32.7926,-71.204544,Hospital Dr. Mario Sánchez Vergara (La Calera)
02-923,1.0,Región De Tarapacá,1405.0,Pica,-20.49129,-69.33028,CEAR Pica
06-902,5.0,Región De Valparaíso,5101.0,Valparaíso,-33.048999,-71.631389,SAPU Marcelo Mena
22-924,14.0,Región De los Ríos,14108.0,Panguipulli,-39.850159,-71.940779,SUR Neltume
03-931,2.0,Región De Antofagasta,2203.0,San Pedro de Atacama,-22.910658,-68.199265,SUR San Pedro Atacama
16-945,7.0,Región Del Maule,7301.0,Curicó,-34.937184,-71.19523,SUR Sarmiento
12-903,13.0,Región Metropolitana de Santiago,13113.0,La Reina,-33.442773,-70.544433,SAPU La Reina
14-912,13.0,Región Metropolitana de Santiago,13202.0,Pirque,-33.635077,-70.572477,SAPU Dr. José Manuel Balmaceda
11-900,13.0,Región Metropolitana de Santiago,13106.0,Estación Central,-33.472719,-70.692094,SAPU Padre Vicente Irarrázabal
06-913,5.0,Región De Valparaíso,5606.0,Santo Domingo,-33.64399,-71.612435,SUR Rocas de Santo Domingo
09-909,13.0,Región Metropolitana de Santiago,13302.0,Lampa,-33.241886,-70.814087,SUR Batuco
17-918,16.0,Región De Ñuble,16204.0,Ninhue,-36.392602,-72.399393,SUR Dr. David Benavente de Ninhue
09-911,13.0,Región Metropolitana de Santiago,13303.0,Tiltil,-33.135329,-70.795754,SUR Huertos Familiares
20-918,8.0,Región Del Bíobío,8303.0,Cabrero,-37.086161,-72.436029,SUR Monteaguila
07-901,5.0,Región De Valparaíso,5109.0,Viña del Mar,-33.046447,-71.539241,SAPU Las Torres
21-909,9.0,Región De La Araucanía,9101.0,Temuco,-38.726446,-72.610611,SAPU Villa Alegre
21-906,9.0,Región De La Araucanía,9111.0,Nueva Imperial,-38.744676,-72.954597,SAPU Nueva Imperial
03-944,2.0,Región De Antofagasta,2302.0,Maria Elena,-22.341088,-69.664249,SUR María Elena
13-920,13.0,Región Metropolitana de Santiago,13403.0,Calera de Tango,-33.625946,-70.782415,SUR Los Bajos de San Agustín
07-905,5.0,Región De Valparaíso,5501.0,Quillota,-32.878679,-71.255634,SAPU Quillota
20-923,8.0,Región Del Bíobío,8313.0,Yumbel,-37.144591,-72.5387,SUR Yumbel Estación
20-922,8.0,Región Del Bíobío,8314.0,Alto Biobío,-37.880521,-71.637247,SUR Ralco
07-960,5.0,Región De Valparaíso,5401.0,La Ligua,-32.391736,-71.376492,SUR LAS PARCELAS
07-948,5.0,Región De Valparaíso,5405.0,Zapallar,-32.567915,-71.416118,SAPU CATAPILCO
201043,7.0,Región Del Maule,7302.0,Hualañé,-35.089365,-71.656547,SUR La Huerta de Hualañé
13-919,13.0,Región Metropolitana de Santiago,13402.0,Buin,-33.735249,-70.684161,SUR Alto Jahuel
13-922,13.0,Región Metropolitana de Santiago,13404.0,Paine,-33.868535,-70.747995,SUR Dr. Raúl Moya
20-919,8.0,Región Del Bíobío,8309.0,Quilleco,-37.469444,-71.981389,SUR Quilleco
07-955,5.0,Región De Valparaíso,5105.0,Puchuncaví,-32.74234,-71.484444,SUR LAS VENTANAS
19-911,8.0,Región Del Bíobío,8111.0,Tome,-36.549329,-72.939859,SUR Dichato
20-920,8.0,Región Del Bíobío,8307.0,Negrete,-37.585352,-72.533476,SUR Negrete
20-921,8.0,Región Del Bíobío,8310.0,San Rosendo,-37.262497,-72.726798,SUR San Rosendo
13-921,13.0,Región Metropolitana de Santiago,13402.0,Buin,-33.734885,-70.784598,SUR Maipo
07-954,5.0,Región De Valparaíso,5405.0,Zapallar,-32.554423,-71.455577,SUR  Dr. Johow (Zapallar)
10-939,13.0,Región Metropolitana de Santiago,13124.0,Pudahuel,-33.445429,-70.740969,SAR Violeta Parra
07-959,5.0,Región De Valparaíso,5506.0,Nogales,-32.735431,-71.204376,SUR NOGALES
08-912,5.0,Región De Valparaíso,5301.0,Los Andes,-32.839454,-70.603242,SAR Centenario
19-912,14.0,Región de Los Ríos,14103.0,Lanco,-39.540666,-72.507908,SAPU Malalhue
07-956,5.0,Región De Valparaíso,5105.0,Puchuncaví,-32.725809,-71.416118,SUR PUCHUNCAVÍ
201063,13.0,Región Metropolitana de Santiago,13108.0,Independencia,-33.415499,-70.657603,SAPU DR. AGUSTIN CRUZ MELO
201079,12.0,Región De Magallanes y de la Antártica Chilena,12401.0,Natales,-51.728207,-72.482647,"SAPU ""Dr. Juan Lozic Perez"""
02-928,1.0,Región De Tarapacá,1107.0,Alto Hospicio,-20.272626,-70.105171,SAR La Tortuga
201067,10.0,Región De Los Lagos,10202.0,Ancud,-41.866796,-73.816608,SAR ANCUD
09-102,13.0,Región Metropolitana de Santiago,13127.0,Recoleta,-33.422402,-70.650537,"Instituto Psiquiátrico Dr. José Horwitz Barak (Santiago, Recoleta)"
201070,5.0,Región De Valparaíso,5501.0,Quillota,-32.887134,-71.252848,SAR Quillota
201085,5.0,Región De Valparaíso,5801.0,Quilpué,-33.041846,-71.40941,SAPU Aviador Acevedo
201069,12.0,Región De Magallanes y de la Antártica Chilena,12101.0,Punta Arenas,-53.155217,-70.93044,SAPU Carlos  Ibañez
07-957,5.0,Región De Valparaíso,5403.0,Papudo,-32.508292,-71.435528,SUR PAPUDO
201078,8.0,Región Del Bíobío,8101.0,Concepción,-36.828554,-73.056186,SAPU CESFAM O'HIGGINS
07-958,5.0,Región De Valparaíso,5803.0,Olmué,-32.990852,-71.18101,SUR  Manuel Lucero (Olmué)
07-952,5.0,Región De Valparaíso,5803.0,Olmué,-32.99447,-71.180597,SAPU  Manuel Lucero (Olmué)
21-932,9.0,Región De La Araucanía,9112.0,Padre Las Casas,-38.772902,-72.626722,Complejo Asistencial Padre las Casas
05-938,4.0,Región De Coquimbo,4301.0,Ovalle,-30.636079,-71.116146,SUR Sotaquí
07-953,5.0,Región De Valparaíso,5401.0,La Ligua,-32.231492,-71.376296,SAPU LOS MOLLES
07-949,5.0,Región De Valparaíso,5405.0,Zapallar,-32.554423,-71.274429,SAPU  Dr. Johow (Zapallar)
07-950,5.0,Región De Valparaíso,5105.0,Puchuncaví,-32.725757,-71.416042,SAPU PUCHUNCAVÍ
20-925,8.0,Región Del Bíobío,8308.0,Quilaco,-37.684828,-72.006609,SUR Quilaco
07-815,5.0,Región De Valparaíso,5105.0,Puchuncaví,-32.742309,-71.484664,SAPU Ventanas
201147,1.0,Región De Tarapacá,1107.0,Alto Hospicio,-20.287114,-70.10386,SAPU Dr. Héctor Reyno Gutiérrez
201038,5.0,Región De Valparaíso,5302.0,Calle Larga,-32.861202,-70.628351,SUR Calle Larga
20-917,8.0,Región Del Bíobío,8302.0,Antuco,-37.33143,-71.671956,SUR Antuco
201187,8.0,Región Del Bíobío,8312.0,Tucapel,-37.293458,-71.948428,SUR Tucapel
201169,5.0,Región De Valparaíso,5702.0,Catemu,-32.778537,-70.961801,SUR Catemu
201215,5.0,Región De Valparaíso,5706.0,Santa Maria,-32.750705,-70.657438,SUR Dr. Jorge Ahumada Lemus
201140,8.0,Región Del Bíobío,8102.0,Coronel,-37.004212,-73.159961,SAR Carlos Pinto Fierro
07-961,5.0,Región De Valparaíso,5503.0,Hijuelas,-32.789967,-71.149183,SUR HIJUELAS
201194,6.0,Región Del Libertador Gral. B. O'Higgins,6111.0,Olivar,-34.203288,-70.756844,SUR Gultro
07-951,5.0,Región De Valparaíso,5403.0,Papudo,-32.508292,-71.455577,SAPU PAPUDO
20-924,8.0,Región Del Bíobío,8309.0,Quilleco,-37.401944,-72.00975,SUR Canteras Villa Mercedes
201178,4.0,Región De Coquimbo,4102.0,Coquimbo,-30.257939,-71.491396,SUR Tongoy
21-937,9.0,Región De La Araucanía,9120.0,Villarrica,-39.489177,-72.154832,SUR Lican Ray
201274,9.0,Región De La Araucanía,9119.0,Vilcún,-38.679986,-72.502998,SAR Cajón
201359,8.0,Región Del Bíobío,8201.0,Lebu,-37.59832,-73.642175,SUR LEBU NORTE
200910,2.0,Región De Antofagasta,2203.0,San Pedro de Atacama,-22.910658,-68.199265,SUR San Pedro Atacama
201443,10.0,Región De Los Lagos,10103.0,Cochamó,-41.664237,-72.295777,SUR COCHAMO - RIO PUELO
201161,14.0,Región De Los Ríos,14108.0,Panguipulli,-39.568231,-72.008145,SAPU Coñaripe
201449,14.0,Región De Los Ríos,14106.0,Mariquina,-39.441071,-73.212933,SAPU de Verano Mehuin
201145,5.0,Región De Valparaíso,5105.0,Puchuncaví,-32.645939,-71.430647,SAPU  Maitencillo
201177,4.0,Región De Coquimbo,4102.0,Coquimbo,-30.055551,-71.25103,SUR Pan de Azúcar
201438,13.0,Región Metropolitana de Santiago,13124.0,Pudahuel,-33.402798,-70.854393,Servicio de Urgencia Rural SUR Irene Frei Montalva 
201180,4.0,Región De Coquimbo,4303.0,Monte Patria,-30.767159,-70.943783,SUR El Palqui
201707,16.0,Región De Ñuble,16101.0,Chillán ,Pendiente,Pendiente,SAR Ultraestación
201319,1.0,Región De Tarapacá,1107.0,Alto Hospicio,-20.294599,-70.09706,Hospital de Alto Hospicio 
201574,5.0,Región De Valparaíso,5101.0,Valparaíso,Pendiente,Pendiente,SAPU Rodelillo
201632,7.0,Región Del Maule,7101.0,Talca,Pendiente,Pendiente,Odontowellness SPA
